,City,Country,Date,Lat,Lng,Max Temp,Humidity,Cloudiness,Wind Speed
0,Tuktoyaktuk,CA,1630003797,69.4541,-133.0374,286.15,88,75,5.66
1,Bluff,NZ,1630003797,-46.6,168.3333,278.6,72,91,4.08
2,Rikitea,PF,1630003797,-23.1203,-134.9692,295.21,70,0,5.12
3,Poum,NC,1630003798,-20.2333,164.0167,295.63,82,12,5.16
4,Strezhevoy,RU,1630003798,60.7333,77.5889,292.14,89,96,2.4
5,Tucumã,BR,1630003799,-0.1833,-50.05,302.59,69,65,3.65
6,Ushuaia,AR,1630003638,-54.8,-68.3,277.96,56,0,0.0
7,Albany,US,1630003527,42.6001,-73.9662,304.66,65,10,1.27
8,Atuona,PF,1630003800,-9.8,-139.0333,298.65,72,0,9.53
9,Khatanga,RU,1630003800,71.9667,102.5,275.62,85,98,2.07
10,Klaksvík,FO,1630003801,62.2266,-6.589,284.66,94,100,0.42
11,Yellowknife,CA,1630003691,62.456,-114.3525,291.44,68,40,4.12
12,Dunedin,NZ,1630003660,-45.8742,170.5036,280.26,85,100,3.13
13,North Myrtle Beach,US,1630003514,33.816,-78.68,303.93,76,1,2.24
14,Erenhot,CN,1630003802,43.6475,111.9767,285.77,70,7,3.28
15,Kaeo,NZ,1630003802,-35.1,173.7833,287.22,92,100,5.29
16,Mataura,NZ,1630003802,-46.1927,168.8643,278.42,99,100,0.76
17,Tel Aviv-Yafo,IL,1630003803,32.0805,34.7805,301.98,75,40,3.6
18,Saint-Philippe,RE,1630003804,-21.3585,55.7679,291.22,78,46,6.43
19,Bengkulu,ID,1630003804,-3.8004,102.2655,296.79,87,5,2.61
20,Lata,PT,1630003804,40.1629,-8.3327,296.68,69,0,2.02
21,Cidreira,BR,1630003805,-30.1811,-50.2056,287.28,85,100,3.24
22,Mar del Plata,AR,1630003751,-38.0023,-57.5575,292.16,22,20,11.32
23,Mayskiy,RU,1630003805,47.6931,40.1025,297.82,34,84,5.21
24,Kaitangata,NZ,1630003806,-46.2817,169.8464,279.87,90,100,2.34
25,Souillac,MU,1630003806,-20.5167,57.5167,294.36,73,40,4.12
26,Port Alfred,ZA,1630003806,-33.5906,26.891,291.06,82,9,3.3
27,Busselton,AU,1630003807,-33.65,115.3333,281.53,55,50,7.47
28,Manoel Urbano,BR,1630003807,-8.8389,-69.2597,311.2,25,100,2.89
29,Tateyama,JP,1630003807,34.9833,139.8667,301.16,92,100,3.02
30,High Level,CA,1630003808,58.5169,-117.136,292.21,55,20,3.09
31,Hobart,AU,1630003638,-42.8794,147.3294,280.4,95,90,2.57
32,Kapaa,US,1630003808,22.0752,-159.319,299.07,72,40,1.34
33,Toora-Khem,RU,1630003809,52.4675,96.11,279.62,69,4,0.61
34,Saint Paul Harbor,US,1630003809,57.79,-152.4072,286.88,77,1,0.0
35,Caucayá,CO,1630003810,-0.1934,-74.7819,303.88,59,100,0.74
36,Punta Arenas,CL,1630003810,-53.15,-70.9167,279.21,70,40,3.09
37,Carnarvon,AU,1630003810,-24.8667,113.6333,289.19,71,0,6.17
38,Ames,US,1630003574,42.0347,-93.6199,294.48,91,75,6.69
39,De Aar,ZA,1630003811,-30.6497,24.0123,287.64,37,0,5.03
40,Dikson,RU,1630003811,73.5069,80.5464,276.41,76,21,6.85
41,Lorengau,PG,1630003811,-2.0226,147.2712,299.87,80,100,4.36
42,Lüderitz,NA,1630003812,-26.6481,15.1594,286.22,82,0,2.54
43,Lerwick,GB,1630003812,60.1545,-1.1494,285.15,85,7,6.03
44,Erzin,TR,1630003813,36.9559,36.2,300.37,79,0,0.63
45,Kudahuvadhoo,MV,1630003813,2.6708,72.8944,300.97,77,38,5.83
46,Murray Bridge,AU,1630003814,-35.1167,139.2667,277.88,84,6,2.16
47,Bredasdorp,ZA,1630003814,-34.5322,20.0403,283.77,87,100,7.72
48,Mana,GF,1630003814,5.6592,-53.7767,302.19,66,24,3.01
49,Talaya,RU,1630003815,61.3833,152.75,286.18,89,100,3.4
50,Sibolga,ID,1630003815,1.7427,98.7792,297.19,90,100,1.28
51,São Filipe,CV,1630003815,14.8961,-24.4956,299.07,89,99,3.88
52,Batticaloa,LK,1630003816,7.7102,81.6924,300.69,70,100,2.34
53,Qaanaaq,GL,1630003816,77.484,-69.3632,276.39,96,100,3.12
54,Hobyo,SO,1630003817,5.3505,48.5268,298.72,84,56,11.24
55,Sioux Lookout,CA,1630003817,50.1001,-91.917,287.19,72,75,2.06
56,Cabo San Lucas,MX,1630003818,22.8909,-109.9124,307.84,65,8,2.19
57,Beroroha,MG,1630003818,-21.6667,45.1667,295.72,54,0,2.28
58,Fortuna,US,1630003818,40.5982,-124.1573,291.14,78,40,1.79
59,Kiama,AU,1630003819,-34.6833,150.8667,284.22,85,100,3.22
60,Longyearbyen,SJ,1630003819,78.2186,15.6401,278.87,90,100,3.81
61,Koratla,IN,1630003820,18.8167,78.7167,297.64,86,40,1.31
62,Alekseyevsk,RU,1630003615,57.8406,108.3492,284.5,94,34,0.7
63,Igarka,RU,1630003820,67.4667,86.5833,284.4,66,100,7.17
64,Vaini,TO,1630003821,-21.2,-175.2,291.24,82,40,4.63
65,Duluth,US,1630003710,46.7833,-92.1066,291.59,73,40,1.34
66,Baykit,RU,1630003821,61.67,96.37,282.41,79,56,1.06
67,Hilo,US,1630003822,19.7297,-155.09,296.47,84,90,3.6
68,Puerto Ayora,EC,1630003822,-0.7393,-90.3518,295.68,80,95,4.02
69,Arman',RU,1630003822,59.7,150.1667,284.84,99,100,2.63
70,Iqaluit,CA,1630003585,63.7506,-68.5145,279.0,75,75,2.06
71,Mazagão,BR,1630003823,-0.115,-51.2894,307.18,50,23,2.25
72,New Norfolk,AU,1630003823,-42.7826,147.0587,279.37,90,100,0.67
73,Salalah,OM,1630003824,17.0151,54.0924,298.64,87,100,2.61
74,Boguchany,RU,1630003824,58.3814,97.4531,289.0,95,65,0.92
75,Kavieng,PG,1630003825,-2.5744,150.7967,300.72,77,51,5.6
76,Bayan,CN,1630003825,46.0833,127.4,288.56,95,78,2.85
77,Morehead,US,1630003825,37.2711,-87.1764,307.81,50,1,1.54
78,Progreso,MX,1630003826,21.2833,-89.6667,306.54,62,0,5.85
79,Norman Wells,CA,1630003826,65.282,-126.8329,286.17,94,75,2.57
80,Hithadhoo,MV,1630003826,-0.6,73.0833,301.27,72,97,3.97
81,St. George's,GD,1630003827,12.0564,-61.7485,302.97,70,20,7.72
82,Lagoa,PT,1630003827,39.05,-27.9833,293.69,62,92,6.76
83,São Gotardo,BR,1630003827,-19.3111,-46.0489,303.5,18,24,1.59
84,Isangel,VU,1630003828,-19.55,169.2667,295.21,78,20,5.14
85,Cape Town,ZA,1630003541,-33.9258,18.4232,283.92,89,90,1.79
86,Bethel,US,1630003828,41.3712,-73.414,305.8,56,1,0.89
87,Aykhal,RU,1630003829,66.0,111.5,276.56,93,100,7.02
88,Sohag,EG,1630003829,26.557,31.6948,307.31,22,1,5.4
89,Hasaki,JP,1630003830,35.7333,140.8333,299.37,86,77,0.96
90,Ambilobe,MG,1630003830,-13.2,49.05,293.29,78,1,1.7
91,Ouango,CF,1630003831,4.3133,22.5552,294.34,96,100,4.12
92,Thompson,CA,1630003748,55.7435,-97.8558,292.24,42,20,3.09
93,Daru,PG,1630003831,-9.0763,143.2092,298.13,91,100,6.02
94,Zhengjiatun,CN,1630003831,43.5064,123.5064,288.47,80,0,3.67
95,Kampot,KH,1630003811,10.6167,104.1833,297.18,89,100,2.09
96,Rapid Valley,US,1630003832,44.0625,-103.1463,299.78,50,1,1.79
97,Chegdomyn,RU,1630003833,51.1167,133.0167,288.45,95,100,0.92
98,Kavaratti,IN,1630003833,10.5669,72.642,300.23,81,100,12.1
99,Tura,IN,1630003834,25.5198,90.2201,296.48,99,100,1.78
100,Hong Kong,HK,1630003761,22.2855,114.1577,302.47,83,1,0.45
101,Guerrero Negro,MX,1630003834,27.9769,-114.0611,303.27,53,0,4.81
102,Jamestown,US,1630003598,42.097,-79.2353,303.07,58,81,1.34
103,Prome,MM,1630003835,18.8167,95.2167,297.43,96,100,2.3
104,George Town,MY,1630003571,5.4112,100.3354,299.85,88,20,1.03
105,Tiksi,RU,1630003835,71.6872,128.8694,277.43,96,100,8.29
106,Hofn,IS,1630003835,64.2539,-15.2082,285.59,98,88,3.4
107,Bambous Virieux,MU,1630003836,-20.3428,57.7575,294.29,73,40,4.12
108,Jaguarari,BR,1630003836,-10.2639,-40.1958,302.96,27,0,4.3
109,Invercargill,NZ,1630003837,-46.4,168.35,278.72,98,100,2.54
110,Cap Malheureux,MU,1630003837,-19.9842,57.6142,292.85,71,3,1.79
111,Ribeira Grande,PT,1630003838,38.5167,-28.7,295.37,56,20,5.14
112,Barrow,US,1630003838,71.2906,-156.7887,278.16,87,90,6.69
113,East London,ZA,1630003838,-33.0153,27.9116,290.67,94,0,2.06
114,Mabaruma,GY,1630003839,8.2,-59.7833,301.74,70,100,2.15
115,Tasiilaq,GL,1630003839,65.6145,-37.6368,278.89,92,100,4.89
116,Hermanus,ZA,1630003839,-34.4187,19.2345,283.04,90,100,7.75
117,La Asuncion,VE,1630003695,11.0333,-63.8628,309.0,46,0,8.75
118,Doka,SD,1630003840,13.5167,35.7667,297.18,82,100,1.89
119,Birao,CF,1630003840,10.2849,22.7882,295.55,89,97,0.43
120,Mahébourg,MU,1630003841,-20.4081,57.7,294.31,73,40,4.12
121,Riyadh,SA,1630003841,24.6877,46.7219,310.23,11,0,3.9
122,Sørland,NO,1630003841,67.667,12.6934,284.07,78,33,2.9
123,Ubari,LY,1630003842,26.5921,12.7805,305.21,15,0,4.3
124,Severo-Kuril'sk,RU,1630003842,50.6789,156.125,285.13,88,100,2.94
125,Chifeng,CN,1630003842,42.2683,118.9636,286.92,71,0,3.11
126,Vredendal,ZA,1630003843,-31.6683,18.5012,287.02,74,81,11.5
127,Cherskiy,RU,1630003843,68.75,161.3,279.14,83,95,2.25
128,Kanpur,IN,1630003843,26.4667,80.35,302.08,72,100,2.47
129,Rudnichnyy,RU,1630003844,59.617,52.4703,281.44,90,54,1.85
130,Mango,US,1630003844,27.9797,-82.3065,304.12,65,75,2.57
131,Måløy,NO,1630003845,61.9353,5.1136,287.16,81,7,9.17
132,Najrān,SA,1630003845,17.4924,44.1277,304.51,21,6,2.02
133,Catuday,PH,1630003845,16.2923,119.8062,300.16,75,19,2.52
134,Nikolskoye,RU,1630003846,59.7035,30.7861,287.09,82,100,3.94
135,Virton,BE,1630003846,49.5682,5.5326,288.59,84,100,3.29
136,Arraial do Cabo,BR,1630003847,-22.9661,-42.0278,304.07,40,0,8.23
137,Olafsvik,IS,1630003847,64.8945,-23.7142,285.82,87,100,7.01
138,Port Elizabeth,ZA,1630003818,-33.918,25.5701,288.31,94,1,1.54
139,Luwuk,ID,1630003847,-0.9516,122.7875,297.53,88,92,1.88
140,Port Lincoln,AU,1630003848,-34.7333,135.8667,282.2,71,33,5.76
141,Honiara,SB,1630003548,-9.4333,159.95,297.38,82,99,2.88
142,Ennis,IE,1630003848,52.8436,-8.9864,297.11,64,20,2.06
143,Ishinomaki,JP,1630003849,38.4167,141.3,296.97,90,23,1.58
144,Talnakh,RU,1630003849,69.4865,88.3972,280.7,93,100,4.05
145,Saint-Pierre,RE,1630003849,-21.3393,55.4781,291.45,85,75,7.2
146,Pachino,IT,1630003850,36.7186,15.0907,300.17,64,0,5.99
147,Henties Bay,NA,1630003850,-22.116,14.2845,286.96,91,1,2.9
148,Payson,US,1630003851,40.0444,-111.7321,301.0,37,75,1.34
149,Biloela,AU,1630003851,-24.4167,150.5,281.65,46,0,1.9
150,Iralaya,HN,1630003669,15.0,-83.2333,304.2,65,100,5.36
151,Kota Kinabalu,MY,1630003851,5.9749,116.0724,297.14,100,40,0.51
152,Butaritari,KI,1630003852,3.0707,172.7902,300.89,75,100,5.95
153,Saint George,US,1630003852,37.1041,-113.5841,309.52,18,1,1.34
154,Nouadhibou,MR,1630003852,20.931,-17.0347,296.14,83,36,10.29
155,Tahe,CN,1630003853,52.3333,124.7333,288.08,99,100,1.94
156,Baracoa,CU,1630003853,20.3467,-74.4958,302.06,71,100,3.64
157,Xam Nua,LA,1630003853,20.4197,104.0439,292.33,100,98,0.86
158,Hwange,ZW,1630003854,-18.3693,26.5019,295.08,32,0,1.64
159,College,US,1630003854,64.8569,-147.8028,283.87,91,75,3.09
160,Porto Velho,BR,1630003566,-8.7619,-63.9039,310.18,36,0,3.09
161,Owando,CG,1630003855,-0.4819,15.8999,299.68,64,83,2.01
162,Te Anau,NZ,1630003855,-45.4167,167.7167,279.32,98,100,1.01
163,Liku,ID,1630003855,-0.7275,119.8922,296.6,92,100,0.74
164,Buraidah,SA,1630003856,26.326,43.975,309.4,9,0,5.16
165,Verkhotur'ye,RU,1630003856,58.8627,60.8054,283.35,80,15,2.38
166,Shache,CN,1630003856,38.4167,77.2406,297.27,25,31,1.32
167,Piedras Negras,MX,1630003857,28.7,-100.5167,310.52,36,0,3.41
168,Volokonovka,RU,1630003857,50.4827,37.8563,294.27,38,100,3.86
169,Avarua,CK,1630003623,-21.2078,-159.775,292.18,100,90,0.51
170,Portales,US,1630003857,34.1862,-103.3344,303.93,39,22,1.34
171,Caravelas,BR,1630003858,-17.7125,-39.2481,298.38,68,0,4.54
172,Vao,NC,1630003858,-22.6667,167.4833,294.53,76,47,6.14
173,Buala,SB,1630003859,-8.145,159.5921,299.4,82,69,3.62
174,Moindou,NC,1630003859,-21.6924,165.677,294.12,84,90,2.1
175,Barra,BR,1630003859,-11.0894,-43.1417,306.42,27,8,0.95
176,Gizo Government Station,SB,1630003599,-8.103,156.8419,300.76,76,100,5.0
177,Bukama,CD,1630003860,-9.2,25.85,302.59,24,29,1.5
178,La Ronge,CA,1630003861,55.1001,-105.2842,291.29,48,75,3.6
179,Molokovo,RU,1630003861,58.1661,36.7628,284.45,87,100,4.74
180,Laguna,US,1630003862,38.421,-121.4238,300.72,40,1,3.09
181,Port Moresby,PG,1630003862,-9.4431,147.1797,298.83,89,75,1.54
182,Ordu,TR,1630003862,40.9086,37.6845,288.74,88,1,1.08
183,Aasiaat,GL,1630003863,68.7098,-52.8699,276.36,94,100,1.47
184,Nizhnevartovsk,RU,1630003863,60.9344,76.5531,292.16,82,40,6.0
185,Bathsheba,BB,1630003864,13.2167,-59.5167,304.49,66,40,8.23
186,Ucluelet,CA,1630003704,48.9329,-125.5528,287.35,98,100,3.76
187,Olinda,BR,1630003580,-8.0089,-34.8553,299.0,61,40,6.17
188,Geraldton,AU,1630003864,-28.7667,114.6,286.38,71,90,3.6
189,Inírida,CO,1630003865,3.8653,-67.9239,305.65,55,96,0.35
190,Camabatela,AO,1630003865,-8.1881,15.375,291.18,88,100,1.91
191,Antofagasta,CL,1630003866,-23.65,-70.4,288.75,71,50,4.68
192,Bud,US,1630003866,39.447,-86.1758,304.65,63,99,1.44
193,Ayan,RU,1630003611,56.45,138.1667,287.66,81,59,2.84
194,Srednekolymsk,RU,1630003866,67.45,153.6833,284.42,54,100,4.61
195,Ilulissat,GL,1630003867,69.2167,-51.1,276.25,95,100,2.12
196,Kutum,SD,1630003867,14.2,24.6667,297.72,54,100,3.82
197,Ust-Nera,RU,1630003867,64.5667,143.2,284.41,91,100,3.11
198,Batagay-Alyta,RU,1630003868,67.8006,130.4114,283.65,81,100,1.74
199,Upernavik,GL,1630003868,72.7868,-56.1549,276.8,97,100,5.56
200,Perelyub,RU,1630003869,51.8667,50.3667,294.49,33,67,5.7
201,San Patricio,US,1630003869,28.017,-97.5169,307.03,40,83,4.38
202,Boende,CD,1630003869,-0.2167,20.8667,298.84,64,6,0.96
203,Fare,PF,1630003870,-16.7,-151.0167,299.31,59,82,6.16
204,Lavrentiya,RU,1630003870,65.5833,-171.0,276.62,67,97,5.49
205,Hambantota,LK,1630003871,6.1241,81.1185,298.34,100,40,3.6
206,Chokurdakh,RU,1630003871,70.6333,147.9167,280.82,75,100,4.54
207,Broken Hill,AU,1630003871,-31.95,141.4333,277.99,81,19,0.0
208,Rāpar,IN,1630003872,23.5667,70.6333,301.3,65,100,7.75
209,Chui,UY,1630003872,-33.6971,-53.4616,289.22,46,0,1.79
210,Khovu-Aksy,RU,1630003872,51.1333,93.6,280.63,71,6,1.68
211,São Geraldo do Araguaia,BR,1630003873,-6.4006,-48.555,309.64,31,45,0.72
212,La Rioja,ES,1630003873,42.25,-2.5,299.03,43,17,0.99
213,Saskylakh,RU,1630003873,71.9167,114.0833,275.68,87,100,7.57
214,Rome,US,1630003874,43.2128,-75.4557,304.61,58,1,3.09
215,Tuatapere,NZ,1630003874,-46.1333,167.6833,278.61,94,100,1.33
216,Aklavik,CA,1630003875,68.2191,-135.0107,287.15,77,75,3.6
217,Belen,TR,1630003875,36.4891,36.2233,297.05,77,0,2.82
218,Ixtapa,MX,1630003875,20.7,-105.2,304.94,77,93,1.34
219,Thinadhoo,MV,1630003876,0.5333,72.9333,301.41,74,14,4.54
220,Witbank,ZA,1630003876,-25.8713,29.2332,290.92,36,12,3.93
221,Flagstaff,US,1630003853,35.1981,-111.6513,300.85,31,1,4.02
222,Nanortalik,GL,1630003876,60.1432,-45.2371,280.43,83,25,7.21
223,Devrek,TR,1630003877,41.2192,31.9558,294.3,88,0,1.54
224,Wad Medani,SD,1630003877,14.4012,33.5199,300.99,56,100,1.89
225,Faya,SA,1630003878,18.3851,42.4509,295.44,30,8,3.94
226,Angoche,MZ,1630003878,-16.2325,39.9086,295.66,83,0,2.67
227,Bonavista,CA,1630003878,48.6499,-53.1147,291.15,71,0,3.58
228,Ovsyanka,RU,1630003879,55.9575,92.5519,286.69,94,6,0.66
229,Puerto Escondido,MX,1630003879,15.85,-97.0667,304.04,63,100,7.94
230,Castro,BR,1630003879,-24.7911,-50.0119,294.78,47,65,4.78
231,Buta,CD,1630003880,2.7858,24.73,294.6,93,98,0.72
232,Goderich,CA,1630003880,43.7501,-81.7165,299.29,78,0,5.14
233,Labuhan,ID,1630003881,-6.8844,112.2051,296.57,76,79,3.91
234,Mayo,US,1630003720,38.8876,-76.5119,306.43,75,84,2.24
235,São João da Barra,BR,1630003881,-21.6403,-41.0511,301.2,75,0,11.64
236,Egvekinot,RU,1630003882,66.3167,-179.1667,275.02,96,100,0.77
237,Puerto Nariño,CO,1630003882,-3.7703,-70.3831,309.12,57,100,1.54
238,Meulaboh,ID,1630003883,4.1363,96.1285,297.69,90,99,1.58
239,Hassan,IN,1630003883,13.0006,76.0994,293.6,92,100,2.86
240,Jasper,US,1630003691,37.2001,-94.3502,307.52,52,75,0.45
241,Japura,ID,1630003883,-0.3167,102.35,295.84,97,40,0.74
242,Wick,GB,1630003884,58.4333,-3.0833,285.17,82,90,3.6
243,Vostok,RU,1630003884,46.4856,135.8833,286.98,96,7,2.17
244,Bereda,ES,1630003885,43.2686,-7.5406,291.51,90,100,0.59
245,Lanzhou,CN,1630003885,36.0564,103.7922,285.75,44,2,1.73
246,Berlevåg,NO,1630003886,70.8578,29.0864,283.12,71,0,1.54
247,Watsa,CD,1630003886,3.0372,29.5355,291.95,88,95,0.26
248,Nantucket,US,1630003601,41.2835,-70.0995,301.57,75,1,5.66
249,Paita,PE,1630003887,-5.0892,-81.1144,296.46,72,100,7.04
250,Trelew,AR,1630003710,-43.249,-65.3051,276.3,93,40,9.26
251,Sakakah,SA,1630003887,29.9697,40.2064,311.91,9,0,3.3
252,Gamboma,CG,1630003887,-1.8764,15.8644,303.22,45,79,1.15
253,Isoka,ZM,1630003888,-10.1606,32.6335,291.62,46,6,1.53
254,Atambua,ID,1630003758,-9.1061,124.8925,294.35,86,11,2.44
255,Tual,ID,1630003888,-5.6667,132.75,299.91,80,46,8.58
256,Nakusp,CA,1630003889,50.2499,-117.8023,291.34,52,98,0.51
257,Inawashiro,JP,1630003889,37.5667,140.1167,295.28,95,77,2.1
258,Paamiut,GL,1630003889,61.994,-49.6678,279.59,89,24,7.11
259,Katangli,RU,1630003720,51.7102,143.2326,285.46,99,100,0.81
260,Nizwá,OM,1630003890,22.9333,57.5333,307.03,33,37,5.23
261,Samarai,PG,1630003890,-10.6167,150.6667,299.7,82,69,5.52
262,Verāval,IN,1630003891,20.9,70.3667,301.28,74,100,5.43
263,Taksimo,RU,1630003891,56.3444,114.8794,286.73,67,62,1.62
264,Holenarasipura,IN,1630003891,12.7828,76.2431,294.21,92,100,2.67
265,Hurghada,EG,1630003892,27.2574,33.8129,308.17,31,0,9.77
266,Provideniya,RU,1630003892,64.3833,-173.3,277.18,67,99,4.3
267,Fukuechō,JP,1630003893,32.6881,128.8419,299.92,89,56,4.62
268,Santa Fe,AR,1630003753,-31.6333,-60.7,295.43,17,0,2.24
269,Fairbanks,US,1630003890,64.8378,-147.7164,283.86,91,90,2.57
270,Cuauhtémoc,MX,1630003893,28.4167,-106.8667,297.99,43,13,5.59
271,Port Hardy,CA,1630003691,50.6996,-127.4199,288.25,94,90,3.6
272,Nikol'sk,RU,1630003894,53.7189,46.0712,286.03,51,29,2.69
273,Independence,US,1630003753,39.0911,-94.4155,307.41,57,1,1.79
274,Bizhbulyak,RU,1630003894,53.6967,54.2642,291.36,33,8,5.87
275,Port Shepstone,ZA,1630003894,-30.7414,30.455,297.72,44,0,3.41
276,Turbiv,UA,1630003895,49.3479,28.7212,284.5,87,14,0.35
277,Coyhaique,CL,1630003895,-45.5752,-72.0662,280.11,53,40,3.6
278,Sabha,LY,1630003896,27.0377,14.4283,305.21,17,0,4.03
279,Meridian,US,1630003728,43.6121,-116.3915,297.27,30,1,0.89
280,Mwandiga,TZ,1630003896,-4.83,29.6581,297.65,54,10,2.3
281,Norden,DE,1630003897,53.6,7.2,289.02,75,31,8.6
282,Río Gallegos,AR,1630003897,-51.6226,-69.2181,280.18,49,75,3.6
283,Osypenko,UA,1630003897,46.9136,36.8253,295.42,84,14,2.67
284,Quelimane,MZ,1630003898,-17.8786,36.8883,293.97,89,0,2.4
285,Plettenberg Bay,ZA,1630003898,-34.0527,23.3716,288.18,68,0,1.43
286,Quatre Cocos,MU,1630003898,-20.2078,57.7625,292.64,73,5,6.0
287,Roald,NO,1630003899,62.5833,6.1333,286.29,71,20,6.17
288,Saldanha,ZA,1630003899,-33.0117,17.9442,284.18,88,100,10.49
289,Malakal,SS,1630003899,9.5334,31.6605,295.81,91,100,1.45
290,Vorotynsk,RU,1630003900,54.4283,36.0465,291.55,93,100,3.05
291,Trussville,US,1630003900,33.6198,-86.6089,304.02,70,40,0.89
292,Vila Franca do Campo,PT,1630003900,37.7167,-25.4333,295.38,62,47,4.22
293,Altamira,BR,1630003901,-3.2033,-52.2064,306.2,55,40,2.57
294,Kāzerūn,IR,1630003901,29.6195,51.6541,305.64,19,0,1.96
295,Crib Point,AU,1630003901,-38.35,145.2,280.24,94,100,4.15
296,Alice Springs,AU,1630003902,-23.7,133.8833,278.9,42,3,2.06
297,Vila Velha,BR,1630003702,-20.3297,-40.2925,300.12,65,20,9.26
298,Beringovskiy,RU,1630003902,63.05,179.3167,281.41,73,6,3.51
299,Nurota,UZ,1630003903,40.5614,65.6886,300.2,20,0,2.01
300,Viedma,AR,1630003903,-40.8135,-62.9967,284.65,24,58,10.13
301,Kilinochchi,LK,1630003904,9.3961,80.3982,300.02,78,98,6.85
302,Kumul,CN,1630003904,42.8,93.45,298.34,19,95,1.42
303,Oriximiná,BR,1630003904,-1.7656,-55.8661,308.01,40,54,2.33
304,Zhangaözen,KZ,1630003905,43.3,52.8,300.49,24,6,3.86
305,Atar,MR,1630003905,20.5169,-13.0499,313.88,13,100,4.86
306,Skeldon,GY,1630003906,5.8833,-57.1333,303.21,59,39,3.38
307,Sitka,US,1630003906,57.0531,-135.33,288.09,77,75,2.57
308,Porto-Novo,BJ,1630003907,6.4965,2.6036,300.05,86,100,2.67
309,Mpanda,TZ,1630003907,-6.3655,31.0409,296.51,32,44,1.21
310,Sorong,ID,1630003908,-0.8833,131.25,298.25,85,56,2.67
311,Wajima,JP,1630003908,37.4,136.9,297.3,93,100,4.13
312,Canmore,CA,1630003691,51.0834,-115.3521,289.76,41,100,2.57
313,Lakshmīpur,BD,1630003611,22.95,90.8333,300.2,90,100,4.64
314,Aguçadoura,PT,1630003909,41.4318,-8.7804,295.52,87,30,0.87
315,Sayyan,YE,1630003909,15.1718,44.3244,294.67,28,67,5.03
316,Gbely,SK,1630003909,48.718,17.1163,286.91,89,14,2.51
317,Belmonte,BR,1630003910,-15.8631,-38.8828,301.15,71,4,4.12
318,Mīnāb,IR,1630003910,27.1467,57.0801,307.87,29,1,1.05
319,Shetpe,KZ,1630003910,44.1667,52.1167,297.69,38,9,2.99
320,Maceió,BR,1630003699,-9.6658,-35.7353,300.84,69,40,5.66
321,Camargo,MX,1630003911,27.6667,-105.1667,303.58,32,11,3.49
322,Pizarro,CO,1630003911,4.9533,-77.366,300.41,78,71,3.56
323,Lebu,CL,1630003912,-37.6167,-73.65,283.71,72,77,0.79
324,Sola,VU,1630003912,-13.8833,167.55,299.52,78,75,0.0
325,San Rafael,AR,1630003912,-34.6177,-68.3301,292.59,8,100,1.75
326,Port Augusta,AU,1630003913,-32.5,137.7667,276.32,82,5,1.56
327,Camacha,PT,1630003913,33.0833,-16.3333,295.82,73,20,5.14
328,Vanavara,RU,1630003914,60.34,102.2797,281.22,82,19,1.59
329,Acheng,CN,1630003914,45.5454,126.977,290.11,94,5,4.64
330,Leh,IN,1630003914,34.1667,77.5833,292.19,29,0,2.71
331,Tarko-Sale,RU,1630003915,64.9225,77.785,290.01,93,92,7.56
332,Arrah,IN,1630003915,25.5667,84.6667,298.09,87,100,1.0
333,Awjilah,LY,1630003916,29.1081,21.2869,304.21,24,0,3.87
334,Pisco,PE,1630003820,-13.7,-76.2167,293.18,64,0,4.63
335,Gopālpur,IN,1630003916,19.2667,84.9167,302.35,73,100,0.51
336,San Policarpo,PH,1630003917,12.1791,125.5072,300.05,81,99,2.07
337,Ostrovnoy,RU,1630003917,68.0531,39.5131,278.97,76,39,3.36
338,Yabēlo,ET,1630003917,4.8833,38.0833,292.23,44,64,4.87
339,Yerbogachën,RU,1630003918,61.2767,108.0108,279.68,86,19,1.79
340,Woodburn,US,1630003918,45.1437,-122.8554,293.33,63,90,0.89
341,Sur,OM,1630003918,22.5667,59.5289,305.95,52,71,6.31
342,Randazzo,IT,1630003919,37.8774,14.9501,294.73,84,36,1.91
343,Salinópolis,BR,1630003723,-0.6136,-47.3561,301.69,69,99,4.68
344,Ossora,RU,1630003920,59.2353,163.0719,286.13,92,100,2.32
345,Lakes Entrance,AU,1630003920,-37.8811,147.981,281.57,94,100,0.86
346,Verkhnyaya Inta,RU,1630003920,65.9811,60.3094,280.12,93,100,3.71
347,Biltine,TD,1630003921,14.5333,20.9167,298.32,69,100,7.64
348,Vestmanna,FO,1630003921,62.1564,-7.1664,283.66,100,90,0.51
349,Beipiao,CN,1630003921,41.7919,120.7792,288.52,74,0,2.15
350,Sagua la Grande,CU,1630003922,22.8067,-80.0756,300.7,63,100,7.99
351,Portland,US,1630003447,45.5234,-122.6762,293.13,72,90,0.89
352,Prince Rupert,CA,1630003922,54.3161,-130.3201,287.12,91,90,1.54
353,Scottsbluff,US,1630003923,41.8666,-103.6672,303.12,30,1,4.63
354,Ahipara,NZ,1630003923,-35.1667,173.1667,287.27,91,100,5.81
355,Sauda,NO,1630003923,59.6506,6.3542,288.34,56,12,2.95
356,Karpathos,GR,1630003924,35.507,27.2132,298.13,88,0,8.75
357,Coaldale,CA,1630003924,49.7167,-112.6185,296.31,34,75,3.09
358,Acapulco de Juárez,MX,1630003925,16.8634,-99.8901,303.41,67,50,5.48
359,Almaznyy,RU,1630003925,48.0448,40.045,297.23,36,81,4.5
360,Salisbury,GB,1630003925,51.0693,-1.7957,290.93,65,0,2.88
361,Mahrīz,IR,1630003926,31.5917,54.4318,303.43,16,0,0.75
362,Torbay,CA,1630003926,47.6666,-52.7314,289.54,75,20,3.6
363,Touros,BR,1630003926,-5.1989,-35.4608,302.65,62,0,8.64
364,Irará,BR,1630003927,-12.05,-38.7667,298.25,60,99,4.14
365,Volot,RU,1630003927,57.9278,30.7025,285.51,91,100,3.26
366,Mikkeli,FI,1630003928,61.6886,27.2723,286.21,82,0,3.09
367,Flinders,AU,1630003928,-34.5833,150.8552,284.37,85,100,0.45
368,Kota Belud,MY,1630003928,6.351,116.4305,297.07,88,98,2.23
369,Kirakira,SB,1630003929,-10.4544,161.9205,299.27,84,83,4.87
370,Oleksandrivka,UA,1630003929,46.8383,32.7612,294.21,75,99,2.39
371,Port Blair,IN,1630003929,11.6667,92.75,299.72,83,100,5.22
372,Brainerd,US,1630003930,46.358,-94.2008,288.98,82,90,2.06
373,Hīt,IQ,1630003930,33.6416,42.8251,310.62,15,0,4.55
374,Zhanakorgan,KZ,1630003931,43.9098,67.2495,299.49,20,6,2.31
375,Asău,RO,1630003931,46.4333,26.4,287.01,89,0,2.18
376,‘Ewa Beach,US,1630003931,21.3156,-158.0072,299.93,62,1,2.06
377,Loikaw,MM,1630003932,19.6742,97.2094,292.85,97,100,0.56
378,Havre-St-Pierre,CA,1630003932,50.2334,-63.5986,291.35,82,90,4.12
379,Christchurch,NZ,1630003898,-43.5333,172.6333,282.62,86,90,1.79
380,Half Moon Bay,US,1630003933,37.4636,-122.4286,295.56,67,20,0.0
381,Alabaster,US,1630003933,33.2443,-86.8164,304.02,65,20,1.79
382,Hūn,LY,1630003933,29.1268,15.9477,304.34,16,0,3.98
383,Zermatt,CH,1630003934,46.0213,7.7491,287.25,92,13,4.48
384,Tottori-shi,JP,1630003934,35.5,134.2333,296.67,91,95,2.46
385,São José da Coroa Grande,BR,1630003935,-8.8978,-35.1478,298.82,73,44,4.57
386,Turukhansk,RU,1630003935,65.8167,87.9833,285.47,59,92,5.92
387,Carauari,BR,1630003935,-4.8828,-66.8958,312.73,23,45,1.81
388,Shiraz,IR,1630003936,29.6036,52.5388,300.84,11,0,2.06
389,Mildura,AU,1630003936,-34.2,142.15,274.13,80,6,0.0
390,Caborca,MX,1630003937,30.5838,-111.101,309.53,23,0,0.48
391,Narsaq,GL,1630003937,60.9167,-46.05,284.46,60,13,2.55
392,Aksarka,RU,1630003937,66.5606,67.7975,278.98,94,100,8.02
393,Porto Walter,BR,1630003938,-8.2686,-72.7439,310.0,28,100,1.93
394,Arica,CL,1630003938,-18.475,-70.3042,289.28,72,90,4.63
395,Faanui,PF,1630003938,-16.4833,-151.75,299.25,61,70,5.8
396,Hay River,CA,1630003939,60.8156,-115.7999,296.14,46,40,2.06
397,Charleston,US,1630003939,32.7766,-79.9309,304.06,70,20,2.68
398,Una,IN,1630003939,20.8167,71.0333,300.14,76,100,4.0
399,Zyryanka,RU,1630003940,65.75,150.85,284.26,90,100,2.44
400,Mananjary,MG,1630003940,-21.2167,48.3333,293.18,85,43,1.82
401,Tessalit,ML,1630003940,20.1986,1.0114,304.1,37,60,7.55
402,Agadez,NE,1630003941,19.75,10.25,308.33,15,6,0.56
403,Concordia,AR,1630003861,-31.393,-58.0209,293.19,30,0,3.09
404,Oodweyne,SO,1630003941,9.4092,45.064,300.2,36,95,7.81
405,Kahului,US,1630003815,20.8947,-156.47,299.19,66,40,4.63
406,Auki,SB,1630003942,-8.7676,160.7034,297.68,87,5,2.08
407,Trincomalee,LK,1630003942,8.5711,81.2335,300.66,75,85,9.23
408,Madimba,TZ,1630003943,-10.4,40.3333,294.77,88,20,4.12
409,Strängnäs,SE,1630003943,59.3774,17.0312,285.95,92,100,7.35
410,Oranjemund,NA,1630003944,-28.55,16.4333,286.59,76,0,6.69
411,Alofi,NU,1630003944,-19.0595,-169.9187,291.09,77,100,3.6
412,Grand Gaube,MU,1630003944,-20.0064,57.6608,292.8,71,3,1.79
413,Ulaanbaatar,MN,1630003945,47.9077,106.8832,282.22,81,40,0.0
414,Turbat,PK,1630003945,26.0023,63.044,303.52,47,6,1.75
415,Ternate,ID,1630003945,0.8,127.4,299.29,80,12,1.19
416,Harper,LR,1630003946,4.375,-7.7169,298.4,86,100,2.36
417,Pacifica,US,1630003946,37.6138,-122.4869,294.72,75,20,2.68
418,San Jose,US,1630003704,37.3394,-121.895,298.31,47,1,0.0
419,Agra,IN,1630003920,27.1833,78.0167,303.62,63,100,3.27
420,Inongo,CD,1630003947,-1.95,18.2667,297.4,64,61,1.63
421,Mumbwa,ZM,1630003947,-14.9783,27.0619,293.99,26,0,2.45
422,Valparaíso,CL,1630003933,-33.0393,-71.6273,290.56,55,0,6.17
423,Saint Cloud,US,1630003704,45.5608,-94.1625,289.4,88,90,4.12
424,‘Āhuimanu,US,1630003948,21.4447,-157.8378,299.32,66,20,4.12
425,Elizabeth City,US,1630003948,36.2946,-76.2511,305.98,66,1,2.24
426,Petropavlovsk-Kamchatskiy,RU,1630003949,53.0452,158.6483,282.48,93,0,3.0
427,Kushima,JP,1630003949,31.4583,131.2333,297.72,94,92,2.16
428,Basco,PH,1630003949,20.4487,121.9702,302.09,76,100,6.75
429,Seredka,RU,1630003950,58.1584,28.1858,288.01,89,96,5.27
430,Minas,UY,1630003950,-34.3759,-55.2377,291.41,53,0,5.36
431,Praia da Vitória,PT,1630003950,38.7333,-27.0667,294.29,73,75,6.86
432,Green Valley,US,1630003951,31.8543,-110.9937,310.32,36,1,0.45
433,Bilibino,RU,1630003951,68.0546,166.4372,278.41,89,100,0.88
434,Saint-Joseph,RE,1630003952,-21.3667,55.6167,290.78,77,24,6.65
435,Muros,ES,1630003952,42.7762,-9.0603,293.28,85,47,0.56
436,Mazsalaca,LV,1630003952,57.8633,25.0547,287.04,96,98,4.75
437,Husavik,IS,1630003953,66.0449,-17.3389,292.1,76,98,2.9
438,Ancud,CL,1630003953,-41.8697,-73.8203,280.89,63,99,3.9
439,Płońsk,PL,1630003953,52.6235,20.3755,287.18,90,88,2.32
440,Aksu,CN,1630003954,41.1231,80.2644,296.51,37,8,1.04
441,Sechura,PE,1630003954,-5.5569,-80.8222,298.01,56,70,5.63
442,Ukiah,US,1630003954,39.1502,-123.2078,300.3,31,1,0.0
443,Marawi,PH,1630003955,7.9986,124.2928,291.84,93,100,1.01
444,Katav-Ivanovsk,RU,1630003955,54.7531,58.1956,286.51,85,54,1.16
445,San Cristobal,VE,1630003955,7.7669,-72.225,300.25,48,100,3.24
446,Pingliang,CN,1630003956,35.5392,106.6861,288.27,61,0,2.01
447,Port-Cartier,CA,1630003956,50.0334,-66.8654,291.27,88,98,3.05
448,Emerald,AU,1630003956,-23.5333,148.1667,284.23,37,0,4.12
449,Maumere,ID,1630003957,-8.6199,122.2111,298.23,82,11,2.51
450,San Ignacio,BZ,1630003957,17.1561,-89.0714,305.23,58,40,2.06
451,Kiryat Gat,IL,1630003958,31.61,34.7642,301.53,76,0,3.12
452,Marsá Maţrūḩ,EG,1630003958,31.3525,27.2453,300.26,69,0,5.14
453,Rio Grande,BR,1630003865,-32.035,-52.0986,289.23,62,0,3.16
454,Araouane,ML,1630003958,18.9048,-3.5265,310.76,27,75,4.75
455,Santa Cruz de la Sierra,BO,1630003833,-17.8,-63.1667,291.18,63,90,6.17
456,Ponta do Sol,PT,1630003959,32.6667,-17.1,298.44,77,25,3.06
457,Kloulklubed,PW,1630003959,7.0419,134.2556,298.43,87,100,2.23
458,Harare,ZW,1630003959,-17.8294,31.0539,289.72,42,0,4.42
459,Ipaussu,BR,1630003960,-23.0553,-49.6284,302.96,33,100,2.68
460,Novooleksiyivka,UA,1630003960,46.2269,34.6428,295.49,65,37,3.7
461,Stokmarknes,NO,1630003961,68.5646,14.9108,285.09,69,19,3.5
462,Guiratinga,BR,1630003961,-16.3494,-53.7583,309.47,15,83,3.48
463,São Raimundo das Mangabeiras,BR,1630003962,-7.0219,-45.4811,309.29,23,99,2.58
464,Neryungri,RU,1630003962,56.6709,124.6491,281.21,93,100,1.82
465,Tākestān,IR,1630003962,36.0696,49.6959,295.75,59,0,3.88
466,Bandarbeyla,SO,1630003963,9.4942,50.8122,298.34,84,41,13.66
467,Kruisfontein,ZA,1630003963,-34.0033,24.7314,286.42,88,0,2.44
468,Lokachi,UA,1630003963,50.737,24.6494,288.57,78,100,1.4
469,Leningradskiy,RU,1630003726,69.3833,178.4167,274.4,82,100,7.85
470,Abilene,US,1630003964,32.4487,-99.7331,307.27,39,40,0.45
471,Pevek,RU,1630003965,69.7008,170.3133,274.75,83,100,2.16
472,Juneau,US,1630003885,58.3019,-134.4197,287.42,87,90,0.45
473,Bezhetsk,RU,1630003965,57.7851,36.6965,284.42,91,100,5.14
474,Tahoua,NE,1630003966,14.8888,5.2692,302.14,61,0,2.06
475,Searcy,US,1630003966,35.2506,-91.7363,308.49,55,1,3.09
476,Aswān,EG,1630003966,24.0934,32.907,309.76,15,0,6.17
477,Avera,US,1630003967,33.194,-82.5271,304.62,42,8,2.89
478,Lompoc,US,1630003967,34.6391,-120.4579,294.14,79,20,3.09
479,Warrnambool,AU,1630003967,-38.3833,142.4833,281.38,88,53,3.53
480,Mount Gambier,AU,1630003968,-37.8333,140.7667,278.1,100,40,0.0
481,Hauterive,FR,1630003968,46.0901,3.4459,293.27,72,6,2.91
482,Magadan,RU,1630003969,59.5667,150.8,284.6,99,100,2.1
483,Valdivia,CL,1630003969,-39.8142,-73.2459,283.2,60,100,2.33
484,Arona,ES,1630003970,28.0996,-16.681,294.56,71,40,0.89
485,Grand-Bourg,GP,1630003970,15.8835,-61.3148,303.46,74,27,6.02
486,Mehamn,NO,1630003970,71.0357,27.8492,283.1,62,100,6.11
487,The Valley,AI,1630003971,18.217,-63.0578,303.59,66,40,6.69
488,Maniitsoq,GL,1630003971,65.4167,-52.9,278.74,90,100,3.6
489,Parfen'yevo,RU,1630003971,58.484,43.4088,285.49,74,99,2.31
490,Mbalmayo,CM,1630003972,3.5167,11.5,295.33,99,38,1.77
491,Nioro,GM,1630003972,13.35,-15.75,302.45,68,100,1.69
492,Bougouni,ML,1630003972,11.417,-7.479,297.65,89,99,1.39
493,Niquero,CU,1630003973,20.0431,-77.5828,296.95,91,100,4.73
494,Jutaí,BR,1630003973,-5.1833,-68.9,310.41,30,92,2.17
495,Pavlovka,RU,1630003974,52.6897,47.1405,287.61,45,6,4.29
496,Vardø,NO,1630003974,70.3705,31.1107,285.14,71,0,4.63
497,Il’inskiy,RU,1630003975,55.619,38.1182,290.18,94,40,3.0
498,Sydney,AU,1630003367,-33.8679,151.2073,282.66,87,0,0.45
499,Esperance,AU,1630003975,-33.8667,121.9,280.06,84,67,9.56
500,Eureka,US,1630003975,40.8021,-124.1637,291.13,77,5,1.34
501,Tomatlán,MX,1630003976,19.9333,-105.25,302.88,71,100,2.26
502,Ambunti,PG,1630003976,-4.2365,142.8448,295.48,99,56,0.76
503,Necochea,AR,1630003976,-38.5473,-58.7368,283.17,77,100,11.06
504,Mamakan,RU,1630003977,57.8161,114.0028,286.68,94,87,0.86
505,General Roca,AR,1630003977,-39.0333,-67.5833,287.37,21,100,16.54
506,Khovd,MN,1630003978,48.0056,91.6419,280.62,83,100,2.0
507,Kumluca,TR,1630003978,36.3703,30.2869,301.98,47,0,1.31
508,Umm Kaddadah,SD,1630003979,13.6017,26.6876,300.66,56,100,5.71
509,Mandalgovi,MN,1630003979,45.7625,106.2708,280.85,82,100,5.65
510,Abéché,TD,1630003979,13.8292,20.8324,295.29,85,100,6.29
511,Ust'-Ishim,RU,1630003980,57.6935,71.1665,292.24,75,6,1.58
512,Yeniseysk,RU,1630003980,58.4497,92.1703,288.44,96,8,0.95
513,Tadine,NC,1630003980,-21.55,167.8833,294.91,70,61,5.4
514,Yamada,JP,1630003981,39.4667,141.95,296.6,93,72,1.27
515,Medina del Campo,ES,1630003981,41.3124,-4.9141,302.09,32,97,3.09
516,Todos Santos,MX,1630003982,23.45,-110.2167,303.2,83,9,4.26
517,Richards Bay,ZA,1630003982,-28.783,32.0377,298.26,58,46,7.15
518,Graham,US,1630003983,47.0529,-122.2943,292.34,65,90,0.89
519,Al Bardīyah,LY,1630003983,31.7561,25.0865,299.41,71,0,4.13
520,Oranjestad,AW,1630003771,12.524,-70.027,304.12,74,75,8.23
521,Hearst,CA,1630003984,49.6835,-83.6665,286.29,49,69,3.15
522,Miraflores,MX,1630003984,19.2167,-98.8083,294.51,42,27,0.51
523,Moree,AU,1630003709,-29.4667,149.85,276.16,100,0,2.57
524,Taoudenni,ML,1630003985,22.6783,-3.9836,302.51,47,95,13.57
525,Zhangjiakou,CN,1630003985,40.81,114.8794,286.04,73,0,0.85
526,Huarmey,PE,1630003985,-10.0681,-78.1522,292.72,74,22,6.14
527,Dryden,CA,1630003986,49.7833,-92.7503,287.31,72,90,4.12
528,Beli Potok,RS,1630003986,44.7061,20.5197,291.23,60,0,1.22
529,Gazojak,TM,1630003986,41.1875,61.4036,301.87,23,0,2.51
530,San Marcos,US,1630003869,33.1434,-117.1661,303.84,50,1,1.79
531,Ardakān,IR,1630003987,32.31,54.0175,306.36,13,0,2.15
532,Takoradze,GH,1630003987,4.8845,-1.7554,298.42,84,14,2.91
533,San Jerónimo,PE,1630003988,-11.9472,-75.2829,292.58,33,88,2.42
534,Aleksandriyskaya,RU,1630003988,44.2272,43.3453,294.5,80,3,1.79
535,Hervey Bay,AU,1630003988,-25.2986,152.8535,281.5,49,0,3.49
536,Makakilo City,US,1630003989,21.3469,-158.0858,297.03,77,1,1.54
537,Dingle,PH,1630003989,10.9995,122.6711,296.18,93,65,2.14
538,Kasungu,MW,1630003990,-13.0333,33.4833,292.13,49,6,1.81
539,Walvis Bay,NA,1630003990,-22.9575,14.5053,285.68,82,0,6.17
540,Larap,PH,1630003991,14.299,122.6504,298.4,91,100,1.85
541,Saint-Augustin,CA,1630003991,51.226,-58.6502,288.56,81,100,1.95
542,Vestmannaeyjar,IS,1630003991,63.4427,-20.2734,286.05,95,100,8.75
543,Port Macquarie,AU,1630003911,-31.4333,152.9167,283.05,80,6,2.6
544,Alyangula,AU,1630003992,-13.8483,136.4192,287.08,88,19,0.0
545,Monster,NL,1630003992,52.0258,4.175,290.08,78,90,0.89
546,Aleksandrovsk,RU,1630003994,59.158,57.5624,280.26,86,6,2.13
547,Moose Factory,CA,1630003994,51.2585,-80.6094,287.14,62,90,5.66
548,Biloli,IN,1630003995,18.7667,77.7333,297.84,84,60,1.18
549,Oddur,SO,1630003995,4.1213,43.8894,297.8,59,36,8.62
550,Lichinga,MZ,1630003997,-13.3128,35.2406,291.2,52,0,3.6
551,Codrington,AU,1630003998,-38.2667,141.9667,277.33,95,11,2.75
552,Airai,TL,1630003998,-8.9266,125.4092,286.56,88,14,1.6
553,Marzuq,YE,1630003999,14.4,46.4667,301.12,53,44,3.43
554,Santarém,BR,1630003999,-2.4431,-54.7083,305.22,55,20,3.09
555,Kieta,PG,1630003999,-6.2167,155.6333,298.77,85,100,3.09
556,Green River,US,1630004000,41.5286,-109.4662,298.86,36,56,2.24
557,Manzhouli,CN,1630004000,49.6,117.4333,284.25,90,100,4.83
558,Bac Lieu,VN,1630004000,9.285,105.7244,298.36,86,100,2.92
559,Uyuni,BO,1630004001,-20.4597,-66.825,284.51,9,0,8.4
560,Finnsnes,NO,1630004001,69.2296,17.9811,282.49,64,100,1.51
