,City,Country,Date,Lat,Lng,Max Temp,Humidity,Cloudiness,Wind Speed
0,Hermanus,ZA,1630104637,-34.4187,19.2345,41.81,75,82,11.63
1,Mount Gambier,AU,1630104638,-37.8333,140.7667,48.11,61,40,17.27
2,Smithers,CA,1630104639,54.7804,-127.1743,66.52,52,40,4.61
3,Padang,ID,1630104553,-0.9492,100.3543,76.35,88,72,4.05
4,Tuktoyaktuk,CA,1630104553,69.4541,-133.0374,51.8,87,75,6.91
5,Afuá,BR,1630104640,-0.1567,-50.3867,78.3,85,88,8.41
6,Lüderitz,NA,1630104640,-26.6481,15.1594,51.35,63,1,10.25
7,Mossamedes,AO,1630104641,-15.1961,12.1522,61.16,85,47,1.99
8,Broken Hill,AU,1630104641,-31.95,141.4333,47.91,40,23,12.66
9,Rikitea,PF,1630104556,-23.1203,-134.9692,73.71,78,4,18.05
10,Puerto Ayora,EC,1630104642,-0.7393,-90.3518,70.56,84,81,5.99
11,Grindavik,IS,1630104642,63.8424,-22.4338,52.27,87,75,14.97
12,Coquimbo,CL,1630104642,-29.9533,-71.3436,55.13,82,75,6.91
13,Chokurdakh,RU,1630104498,70.6333,147.9167,40.53,62,100,14.92
14,Chadiza,ZM,1630104643,-14.0678,32.4392,67.06,33,3,2.39
15,Souillac,MU,1630104643,-20.5167,57.5167,70.18,94,75,19.57
16,Nikolskoye,RU,1630104644,59.7035,30.7861,60.69,84,97,6.8
17,Dikson,RU,1630104644,73.5069,80.5464,39.16,81,21,3.76
18,Khatanga,RU,1630104559,71.9667,102.5,36.03,95,100,21.74
19,Warrington,GB,1630104645,53.3925,-2.5802,56.55,78,75,1.01
20,Chibombo,ZM,1630104645,-14.6569,28.0706,65.32,35,1,5.14
21,San Patricio,US,1630104645,28.017,-97.5169,85.26,61,100,10.54
22,Sept-Îles,CA,1630104617,50.2001,-66.3821,66.72,32,20,16.11
23,Arraial do Cabo,BR,1630104561,-22.9661,-42.0278,70.5,87,89,12.37
24,Ushuaia,AR,1630104497,-54.8,-68.3,38.86,56,75,18.41
25,Port Alfred,ZA,1630104646,-33.5906,26.891,52.84,64,97,21.85
26,Tura,IN,1630104646,25.5198,90.2201,72.77,98,100,4.34
27,Barrow,US,1630104647,71.2906,-156.7887,37.42,87,90,23.02
28,Punta Arenas,CL,1630104647,-53.15,-70.9167,39.31,87,90,16.11
29,Ostrovnoy,RU,1630104648,68.0531,39.5131,45.79,80,65,20.36
30,Ca Mau,VN,1630104648,9.1769,105.15,76.53,90,100,1.01
31,Yangi Marg`ilon,UZ,1630104649,40.4272,71.7189,72.32,49,92,9.22
32,Khāsh,IR,1630104649,28.2211,61.2158,71.33,18,4,2.64
33,Sitka,US,1630104504,57.0531,-135.33,58.89,77,90,6.91
34,Jamestown,US,1630104649,42.097,-79.2353,76.33,87,20,1.01
35,Hithadhoo,MV,1630104650,-0.6,73.0833,82.58,72,22,11.27
36,Pevek,RU,1630104650,69.7008,170.3133,38.25,77,100,13.58
37,East London,ZA,1630104651,-33.0153,27.9116,54.19,56,100,16.49
38,Mahébourg,MU,1630104651,-20.4081,57.7,70.09,94,75,19.57
39,Payo,ID,1630104652,-3.7508,103.6372,72.81,79,98,0.74
40,Esperance,AU,1630104544,-33.8667,121.9,48.04,79,100,22.53
41,Norman Wells,CA,1630104652,65.282,-126.8329,71.64,37,20,10.36
42,Goderich,CA,1630104653,43.7501,-81.7165,79.16,73,74,9.22
43,Albany,US,1630104653,42.6001,-73.9662,76.03,91,39,5.17
44,Butaritari,KI,1630104653,3.0707,172.7902,83.3,73,40,11.25
45,Casablanca,MA,1630104438,33.5928,-7.6192,69.35,81,15,6.64
46,Castro,BR,1630104654,-24.7911,-50.0119,54.63,98,100,7.29
47,Cape Town,ZA,1630104538,-33.9258,18.4232,46.15,89,20,1.01
48,Hobart,AU,1630104554,-42.8794,147.3294,43.09,95,75,5.75
49,Nuevo Progreso,MX,1630104655,23.1667,-97.95,86.63,45,58,3.0
50,Tasiilaq,GL,1630104655,65.6145,-37.6368,41.76,99,100,2.46
51,Acapulco de Juárez,MX,1630104623,16.8634,-99.8901,75.36,91,100,8.88
52,Viedma,AR,1630104656,-40.8135,-62.9967,48.45,37,86,9.89
53,Lavrentiya,RU,1630104656,65.5833,-171.0,43.43,90,97,16.49
54,Imbituba,BR,1630104657,-28.24,-48.6703,60.69,87,100,1.74
55,Anloga,GH,1630104657,5.7947,0.8973,79.02,86,99,11.25
56,Sur,OM,1630104657,22.5667,59.5289,85.82,56,100,8.84
57,Mataura,NZ,1630104658,-46.1927,168.8643,48.47,76,97,2.82
58,Busselton,AU,1630104658,-33.65,115.3333,48.04,82,100,9.4
59,Cabo San Lucas,MX,1630104595,22.8909,-109.9124,90.9,66,40,4.0
60,Lukovetskiy,RU,1630104659,64.2956,41.9211,40.98,85,23,3.8
61,Qasigiannguit,GL,1630104660,68.8193,-51.1922,37.09,89,100,1.86
62,Mesyagutovo,RU,1630104660,55.5303,58.2528,51.85,78,85,11.56
63,Khovd,MN,1630104661,48.0056,91.6419,50.65,79,72,2.08
64,Bomi,SL,1630104661,7.2461,-11.5258,75.06,94,94,2.26
65,Atuona,PF,1630104661,-9.8,-139.0333,78.08,78,4,16.15
66,Mareeba,AU,1630104662,-17.0,145.4333,70.52,92,47,4.79
67,Boca do Acre,BR,1630104662,-8.7522,-67.3978,86.72,42,93,2.42
68,Llanes,ES,1630104663,43.4198,-4.7549,66.87,80,2,9.44
69,Ribeira Grande,PT,1630104663,38.5167,-28.7,72.03,84,99,13.18
70,Kushmurun,KZ,1630104663,52.4503,64.6311,64.9,66,47,13.94
71,Along,IN,1630104664,28.1667,94.7667,72.84,100,100,1.03
72,Leh,IN,1630104664,34.1667,77.5833,57.43,51,32,6.02
73,Qaanaaq,GL,1630104665,77.484,-69.3632,37.85,89,98,0.89
74,Olafsvik,IS,1630104666,64.8945,-23.7142,52.74,83,90,20.58
75,Port Elizabeth,ZA,1630104666,-33.918,25.5701,52.09,58,0,16.11
76,Longyearbyen,SJ,1630104667,78.2186,15.6401,39.04,81,20,11.5
77,San Rafael,AR,1630104667,-34.6177,-68.3301,57.27,24,79,7.11
78,Yellowknife,CA,1630104667,62.456,-114.3525,72.12,53,20,6.91
79,Tiksi,RU,1630104668,71.6872,128.8694,36.05,99,100,7.94
80,Samarkand,UZ,1630104669,39.6542,66.9597,71.02,43,0,6.91
81,Termoli,IT,1630104670,41.9888,14.9895,71.26,81,2,17.47
82,Dzerzhinskoye,RU,1630104670,56.8344,95.2283,49.68,85,6,3.58
83,Thinadhoo,MV,1630104671,0.5333,72.9333,81.72,76,87,11.99
84,Agüimes,ES,1630104672,27.9054,-15.4461,72.23,64,20,18.41
85,Yulara,AU,1630104673,-25.2406,130.9889,51.64,50,40,8.05
86,Port Blair,IN,1630104673,11.6667,92.75,73.44,100,90,10.36
87,Airai,TL,1630104674,-8.9266,125.4092,64.2,46,100,3.83
88,Bluff,NZ,1630104674,-46.6,168.3333,48.79,83,99,8.23
89,Hasaki,JP,1630104674,35.7333,140.8333,81.0,80,58,1.57
90,Lucapa,AO,1630104675,-8.4192,20.7447,69.26,75,42,2.37
91,Orthez,FR,1630104675,43.4884,-0.7724,60.73,91,0,3.29
92,Salalah,OM,1630104676,17.0151,54.0924,77.34,91,98,6.22
93,Kununurra,AU,1630104422,-15.7667,128.7333,62.58,59,43,3.44
94,Kavaratti,IN,1630104676,10.5669,72.642,79.45,81,100,17.56
95,North Bend,US,1630104676,43.4065,-124.2243,70.07,60,1,21.85
96,Saint-Philippe,RE,1630104677,-21.3585,55.7679,68.34,94,99,22.01
97,Porto-Novo,BJ,1630104678,6.4965,2.6036,75.02,92,92,6.06
98,Caravelas,BR,1630104678,-17.7125,-39.2481,71.85,83,1,6.62
99,Susaki,JP,1630104679,33.3667,133.2833,78.87,70,68,1.77
100,Vaini,TO,1630104679,-21.2,-175.2,69.96,78,40,8.05
101,Talnakh,RU,1630104679,69.4865,88.3972,38.3,97,100,2.28
102,Balakhninskiy,RU,1630104680,58.0106,114.2769,50.52,78,57,0.72
103,Loíza,PR,1630104680,18.4313,-65.8802,83.55,82,40,14.97
104,Los Llanos de Aridane,ES,1630104681,28.6585,-17.9182,75.13,52,0,8.05
105,George Town,MY,1630104681,5.4112,100.3354,77.45,91,20,1.14
106,New Norfolk,AU,1630104681,-42.7826,147.0587,42.98,87,91,2.24
107,Tucumcari,US,1630104682,35.1717,-103.725,94.84,24,20,13.8
108,Westport,US,1630104682,41.1415,-73.3579,84.09,78,20,1.01
109,Waingapu,ID,1630104683,-9.6567,120.2641,76.84,77,27,9.13
110,Japura,ID,1630104683,-0.3167,102.35,71.26,96,25,1.72
111,Dana Point,US,1630104683,33.467,-117.6981,82.18,73,16,1.99
112,Buala,SB,1630104684,-8.145,159.5921,83.57,75,91,11.21
113,Avarua,CK,1630104684,-21.2078,-159.775,73.45,53,20,6.91
114,Mount Isa,AU,1630104685,-20.7333,139.5,62.37,22,0,0.0
115,Bonthe,SL,1630104685,7.5264,-12.505,77.63,87,99,5.39
116,Araouane,ML,1630104686,18.9048,-3.5265,98.33,26,19,2.13
117,Leningradskiy,RU,1630104686,69.3833,178.4167,37.45,82,100,7.49
118,Nouadhibou,MR,1630104686,20.931,-17.0347,73.38,83,0,10.36
119,Manga,BF,1630104687,11.6636,-1.0731,73.9,91,59,4.99
120,Saskylakh,RU,1630104687,71.9167,114.0833,35.47,86,100,15.9
121,Bangui,CF,1630104688,4.3612,18.555,75.38,83,20,0.0
122,São Miguel do Araguaia,BR,1630104688,-13.275,-50.1628,86.88,23,35,5.26
123,Iqaluit,CA,1630104471,63.7506,-68.5145,47.93,93,90,16.11
124,Wau,SS,1630104689,7.7029,27.9953,72.14,87,75,3.47
125,Kaitangata,NZ,1630104689,-46.2817,169.8464,48.25,87,100,7.29
126,Moindou,NC,1630104689,-21.6924,165.677,78.75,61,8,0.87
127,Cidreira,BR,1630104690,-30.1811,-50.2056,56.14,74,50,7.11
128,Port Hardy,CA,1630104690,50.6996,-127.4199,59.18,88,75,3.44
129,Bethel,US,1630104690,41.3712,-73.414,82.74,82,54,4.83
130,Carnarvon,AU,1630104691,-24.8667,113.6333,51.87,54,0,12.66
131,Kapaa,US,1630104691,22.0752,-159.319,80.87,67,40,4.0
132,Chicama,PE,1630104692,-7.8447,-79.1469,66.85,76,59,9.55
133,Tottori-shi,JP,1630104530,35.5,134.2333,77.07,78,20,5.75
134,Palmer,US,1630104692,42.1584,-72.3287,79.7,71,40,9.22
135,Guerrero Negro,MX,1630104693,27.9769,-114.0611,87.78,47,7,13.56
136,Natal,BR,1630104693,-5.795,-35.2094,77.22,78,0,10.36
137,Sisimiut,GL,1630104693,66.9395,-53.6735,41.59,79,71,1.43
138,Saint Paul Harbor,US,1630104694,57.79,-152.4072,62.11,55,40,16.11
139,Ndago,TZ,1630104694,-4.6,34.35,66.25,31,4,13.18
140,Lompoc,US,1630104694,34.6391,-120.4579,77.92,65,1,14.97
141,Yuxia,CN,1630104695,34.0615,108.6291,68.61,74,91,2.39
142,Portland,US,1630104112,45.5234,-122.6762,73.94,45,75,1.99
143,San Ramon,US,1630104587,37.7799,-121.978,93.78,23,1,1.01
144,Praxédis Guerrero,MX,1630104696,31.3667,-106.0167,90.39,24,7,8.93
145,Nome,US,1630104696,64.5011,-165.4064,48.27,61,1,16.11
146,Maykor,RU,1630104697,59.0059,55.88,42.89,86,16,8.01
147,Wembley,AU,1630104697,-31.9333,115.8,48.58,94,75,5.75
148,Kangaba,ML,1630104697,11.9333,-8.4167,74.88,89,79,3.24
149,Las Rosas,AR,1630104698,-32.4766,-61.5804,60.76,41,46,9.04
150,Tisul',RU,1630104698,55.7611,88.3122,51.82,87,0,4.21
151,Muros,ES,1630104699,42.7762,-9.0603,62.91,93,8,3.0
152,Bambous Virieux,MU,1630104699,-20.3428,57.7575,70.05,94,75,19.57
153,Coyhaique,CL,1630104700,-45.5752,-72.0662,40.95,87,90,5.75
154,Lorengau,PG,1630104701,-2.0226,147.2712,84.18,71,51,11.03
155,Bredasdorp,ZA,1630104701,-34.5322,20.0403,43.92,81,72,12.66
156,Shakiso,ET,1630104701,5.75,38.9167,60.37,89,100,2.75
157,Najrān,SA,1630104702,17.4924,44.1277,84.85,23,70,3.47
158,Camacha,PT,1630104702,33.0833,-16.3333,69.21,78,20,5.75
159,Faanui,PF,1630104702,-16.4833,-151.75,77.83,76,13,8.77
160,Millinocket,US,1630104703,45.6573,-68.7098,69.82,53,75,6.91
161,Navahrudak,BY,1630104703,53.6,25.8333,53.38,85,73,3.91
162,Oistins,BB,1630104704,13.0667,-59.5333,82.49,78,40,18.41
163,Warri,NG,1630104704,5.5167,5.75,76.32,92,100,1.99
164,Cururupu,BR,1630104705,-1.8283,-44.8683,75.87,84,68,4.68
165,Kaeo,NZ,1630104705,-35.1,173.7833,62.33,94,100,11.92
166,Talara,PE,1630104706,-4.5772,-81.2719,64.72,87,61,13.96
167,Adrar,MR,1630104706,20.5022,-10.0711,84.97,47,94,22.21
168,Prome,MM,1630104706,18.8167,95.2167,74.07,98,95,4.59
169,Khandyga,RU,1630104707,62.6667,135.6,42.96,89,100,4.7
170,Constitución,CL,1630104556,-35.3333,-72.4167,49.39,88,100,6.71
171,Nanma,CN,1630104708,36.1817,118.1583,66.56,79,25,1.83
172,Liwale,TZ,1630104708,-9.7667,37.9333,64.17,91,0,2.55
173,Mar del Plata,AR,1630104559,-38.0023,-57.5575,46.42,87,0,6.91
174,Kalmunai,LK,1630104709,7.4167,81.8167,80.46,71,100,3.27
175,Tiruchchendur,IN,1630104709,8.4833,78.1167,80.37,75,100,12.97
176,Narsaq,GL,1630104709,60.9167,-46.05,45.66,65,0,3.13
177,Lagoa,PT,1630104710,39.05,-27.9833,70.12,85,96,14.12
178,Coihueco,CL,1630104710,-36.6167,-71.8333,48.94,93,90,8.05
179,Virginia Beach,US,1630104656,36.8529,-75.978,89.47,61,20,10.36
180,Severo-Kuril'sk,RU,1630104711,50.6789,156.125,54.3,99,100,11.83
181,Morón,AR,1630104711,-34.6534,-58.6198,55.54,54,19,1.99
182,Benguela,AO,1630104711,-12.5763,13.4055,67.26,88,62,2.73
183,Esso,RU,1630104712,55.9333,158.7,61.23,74,95,3.11
184,Byron Bay,AU,1630104713,-28.65,153.6167,57.33,38,0,8.52
185,Tabas,IR,1630104713,33.5959,56.9244,81.37,20,0,4.0
186,Karratha,AU,1630104713,-20.7377,116.8463,70.09,34,0,15.52
187,Eldorado,BR,1630104714,-23.7869,-54.2836,59.16,97,100,3.47
188,Alofi,NU,1630104714,-19.0595,-169.9187,75.09,46,89,14.97
189,Seversk,RU,1630104714,56.6006,84.8864,60.49,91,8,3.98
190,Hilo,US,1630104715,19.7297,-155.09,77.13,81,90,5.75
191,Pathein,MM,1630104716,16.7833,94.7333,75.85,93,99,4.9
192,Nemuro,JP,1630104717,43.3236,145.575,65.19,88,68,12.17
193,Pudozh,RU,1630104717,61.8099,36.5345,45.18,86,100,4.56
194,Mahabalipuram,IN,1630104718,12.6264,80.1722,77.05,76,100,16.75
195,Karlskrona,SE,1630104718,56.1616,15.5866,59.45,95,100,12.57
196,Matagami,CA,1630104718,49.7502,-77.6328,64.51,52,1,2.3
197,Simití,CO,1630104719,7.9579,-73.9436,78.87,90,91,2.66
198,Bridlington,GB,1630104719,54.0831,-0.1919,55.42,93,10,10.13
199,Klaksvík,FO,1630104719,62.2266,-6.589,50.92,90,100,10.67
200,Ancud,CL,1630104720,-41.8697,-73.8203,47.73,92,100,9.62
201,La Ronge,CA,1630104720,55.1001,-105.2842,61.05,72,90,8.05
202,Paamiut,GL,1630104721,61.994,-49.6678,44.1,78,33,6.76
203,Nanortalik,GL,1630104721,60.1432,-45.2371,41.68,85,8,12.03
204,Coahuayana Viejo,MX,1630104722,18.7333,-103.6833,76.69,92,100,1.83
205,Vyshhorod,UA,1630104722,50.5848,30.4898,58.35,98,82,4.81
206,Port Augusta,AU,1630104722,-32.5,137.7667,56.71,59,90,8.34
207,Iskateley,RU,1630104723,67.6803,53.1512,47.62,82,99,15.41
208,Gunjur,GM,1630104723,13.2019,-16.7339,80.67,94,40,5.75
209,Bengkulu,ID,1630104724,-3.8004,102.2655,73.71,84,90,5.32
210,San Cristobal,VE,1630104724,7.7669,-72.225,77.18,78,38,3.33
211,Katsuura,JP,1630104725,35.1333,140.3,80.62,79,39,1.63
212,Bow Island,CA,1630104725,49.8668,-111.3684,70.65,38,100,8.05
213,Nyurba,RU,1630104726,63.2842,118.3319,42.66,66,98,2.89
214,Chui,UY,1630104726,-33.6971,-53.4616,48.11,77,5,6.33
215,Stornoway,GB,1630104726,58.2093,-6.3865,57.09,94,90,2.3
216,Half Moon Bay,US,1630104718,37.4636,-122.4286,92.34,25,1,9.22
217,Norrtälje,SE,1630104727,59.758,18.705,56.07,88,100,10.42
218,Provideniya,RU,1630104727,64.3833,-173.3,45.82,91,100,15.84
219,São Filipe,CV,1630104728,14.8961,-24.4956,78.22,84,30,7.67
220,Torbay,CA,1630104728,47.6666,-52.7314,63.48,95,90,11.5
221,Vila Velha,BR,1630104728,-20.3297,-40.2925,75.15,78,20,13.8
222,Killybegs,IE,1630104729,54.6333,-8.45,61.45,91,30,3.6
223,Sheridan,US,1630104729,44.8333,-106.9173,78.91,32,1,4.0
224,Welahan,ID,1630104730,-6.8,110.7167,75.24,74,63,6.93
225,Bairiki Village,KI,1630104730,1.3292,172.9752,87.8,70,20,9.22
226,Río Gallegos,AR,1630104730,-51.6226,-69.2181,39.25,87,90,24.16
227,Geraldton,AU,1630104731,-28.7667,114.6,43.21,93,2,9.22
228,Vikeså,NO,1630104731,58.6376,6.0913,57.81,77,51,1.21
229,Carballo,ES,1630104731,43.213,-8.691,61.56,97,1,2.86
230,Ponta do Sol,PT,1630104732,32.6667,-17.1,72.77,69,33,2.71
231,Kavieng,PG,1630104732,-2.5744,150.7967,83.12,77,100,14.2
232,Tabou,CI,1630104733,4.423,-7.3528,76.14,90,15,7.07
233,Mabaruma,GY,1630104733,8.2,-59.7833,76.75,89,100,3.18
234,Vardø,NO,1630104733,70.3705,31.1107,52.52,79,86,23.0
235,Manzhouli,CN,1630104734,49.6,117.4333,53.71,79,7,7.96
236,Bratsk,RU,1630104734,56.1325,101.6142,50.49,87,26,3.69
237,Bara,NG,1630104734,10.3744,10.7288,75.88,84,81,1.92
238,Berlevåg,NO,1630104735,70.8578,29.0864,50.07,86,98,31.36
239,Arman',RU,1630104735,59.7,150.1667,55.09,98,100,3.18
240,Sungai Penuh,ID,1630104736,-2.0833,101.3833,63.3,95,99,2.42
241,Assiut,EG,1630104736,27.181,31.1837,84.38,30,0,14.38
242,Moose Factory,CA,1630104737,51.2585,-80.6094,60.78,67,1,11.5
243,Uray,RU,1630104737,60.1247,64.7758,45.84,71,94,7.07
244,Asău,RO,1630104737,46.4333,26.4,59.49,88,29,5.44
245,Broome,US,1630104738,42.2506,-75.833,74.59,85,90,1.99
246,Lebu,CL,1630104491,-37.6167,-73.65,48.81,94,100,22.62
247,Shimokizukuri,JP,1630104738,40.8061,140.3861,70.21,83,100,6.15
248,Latacunga,EC,1630104738,-0.9333,-78.6167,60.85,51,75,11.5
249,Darnah,LY,1630104739,32.767,22.6367,80.02,62,0,7.7
250,Savonlinna,FI,1630104739,61.8699,28.88,55.15,88,90,5.75
251,Marabba,SD,1630104740,12.35,32.1833,79.59,72,61,7.4
252,Kutum,SD,1630104740,14.2,24.6667,79.41,49,67,8.34
253,Awjilah,LY,1630104740,29.1081,21.2869,86.31,30,0,7.43
254,Valdosta,US,1630104660,30.8327,-83.2785,78.87,91,75,0.0
255,Thompson,CA,1630104741,55.7435,-97.8558,66.36,48,75,4.61
256,Laguna,US,1630104741,38.421,-121.4238,97.97,18,90,1.01
257,Srednekolymsk,RU,1630104742,67.45,153.6833,49.05,64,97,14.47
258,Banda Aceh,ID,1630104742,5.5577,95.3222,77.67,78,72,8.19
259,Ajdabiya,LY,1630104742,30.7554,20.2263,82.85,47,0,5.88
260,Pangnirtung,CA,1630104743,66.1451,-65.7125,42.8,93,90,10.36
261,Helong,CN,1630104743,42.5397,128.9972,67.21,70,35,10.2
262,Iracoubo,GF,1630104744,5.4802,-53.2011,79.54,84,91,10.22
263,Qui Nhon,VN,1630104744,13.7667,109.2333,77.43,85,99,4.94
264,Faya,SA,1630104744,18.3851,42.4509,70.32,40,82,4.43
265,Ahar,IR,1630104745,38.4774,47.0699,66.61,57,0,2.53
266,Anadyr,RU,1630104745,64.75,177.4833,57.7,77,20,13.42
267,Wonthaggi,AU,1630104746,-38.6044,145.5913,43.52,86,32,5.91
268,Avera,US,1630104746,33.194,-82.5271,81.86,59,100,5.88
269,Vila Franca do Campo,PT,1630104746,37.7167,-25.4333,70.21,90,88,8.99
270,Qaqortoq,GL,1630104747,60.7167,-46.0333,45.86,69,0,8.25
271,Boende,CD,1630104747,-0.2167,20.8667,71.4,96,68,2.66
272,Trairi,BR,1630104748,-3.2778,-39.2689,78.42,78,64,14.12
273,Gălăuţaş,RO,1630104748,46.9167,25.4333,49.03,97,95,2.21
274,Tapes,BR,1630104749,-30.6733,-51.3958,54.5,69,0,5.28
275,Mukhen,RU,1630104749,48.1,136.1,65.25,88,70,8.01
276,Codrington,AU,1630104749,-38.2667,141.9667,47.8,68,77,11.72
277,Kruisfontein,ZA,1630104750,-34.0033,24.7314,42.89,72,63,10.69
278,Say,NE,1630104750,13.1007,2.3689,79.36,82,99,12.17
279,Mariánské Lázně,CZ,1630104750,49.9646,12.7012,50.7,97,100,5.86
280,Jumla,NP,1630104751,29.2747,82.1838,62.08,99,100,2.08
281,Pitimbu,BR,1630104753,-7.4706,-34.8086,73.99,78,30,11.27
282,Camocim,BR,1630104753,-2.9022,-40.8411,80.02,66,61,19.75
283,Upernavik,GL,1630104754,72.7868,-56.1549,38.95,88,100,6.96
284,Egvekinot,RU,1630104754,66.3167,-179.1667,40.19,100,100,7.7
285,Chabahar,IR,1630104755,25.2919,60.643,78.96,87,23,12.86
286,Tarakan,ID,1630104755,3.3,117.6333,80.24,78,96,5.32
287,Saint-Augustin,CA,1630104756,51.226,-58.6502,52.65,72,62,22.91
288,Vestmanna,FO,1630104756,62.1564,-7.1664,49.12,100,90,3.44
289,Pringsewu,ID,1630104756,-5.3582,104.9744,72.32,91,93,2.98
290,Naze,JP,1630104545,28.3667,129.4833,76.12,74,68,1.41
291,Zapolyarnyy,RU,1630104757,69.4154,30.8136,51.08,80,72,6.55
292,Dombarovskiy,RU,1630104757,50.7587,59.5386,72.82,30,96,6.02
293,Thayetmyo,MM,1630104758,19.3167,95.1833,74.39,98,96,4.34
294,Rāmānuj Ganj,IN,1630104758,23.8,83.7,74.05,91,100,1.74
295,Coolum Beach,AU,1630104758,-26.5333,153.1,67.33,42,1,1.83
296,Mulegé,MX,1630104759,26.8833,-111.9833,96.19,47,50,6.15
297,Nichinan,JP,1630104759,31.6,131.3667,80.28,76,17,3.98
298,Novouzensk,RU,1630104759,50.4592,48.1431,67.17,34,100,9.57
299,São Paulo de Olivença,BR,1630104760,-3.3783,-68.8725,83.39,56,66,2.35
300,Pahrump,US,1630104760,36.2083,-115.9839,102.81,9,0,5.01
301,Belen,TR,1630104520,36.4891,36.2233,71.74,89,0,16.11
302,Derzhavīnsk,KZ,1630104760,51.1,66.3167,69.13,43,10,6.31
303,Lipin Bor,RU,1630104761,60.2622,37.9763,46.35,87,69,8.21
304,Cobija,BO,1630104761,-11.0267,-68.7692,84.83,46,74,1.48
305,Trojes,AL,1630104761,41.756,19.962,64.89,76,0,3.83
306,Tual,ID,1630104762,-5.6667,132.75,77.59,89,100,15.86
307,Grand Bank,CA,1630104762,47.0999,-55.765,63.91,89,98,17.2
308,Buzuluk,RU,1630104763,52.7807,52.2635,56.57,55,7,9.8
309,Shevchenkove,UA,1630104763,49.6959,37.1735,62.38,69,44,3.44
310,Namatanai,PG,1630104763,-3.6667,152.4333,82.69,73,98,8.81
311,Bathsheba,BB,1630104764,13.2167,-59.5167,83.01,78,40,18.41
312,Roald,NO,1630104764,62.5833,6.1333,52.29,73,0,2.48
313,Chandler,US,1630104765,33.3062,-111.8412,110.75,16,1,1.99
314,Murgab,TM,1630104765,37.4966,61.9714,76.87,41,0,6.91
315,Nouakchott,MR,1630104746,18.0858,-15.9785,82.33,80,98,12.5
316,Isangel,VU,1630104765,-19.55,169.2667,78.91,65,75,2.3
317,Provost,CA,1630104766,52.3501,-110.2683,63.82,51,100,8.01
318,Djibo,BF,1630104766,14.1022,-1.6306,87.98,46,69,3.58
319,Fendou,CN,1630104767,45.2,130.9167,64.9,70,5,16.71
320,Mtama,TZ,1630104767,-10.3,39.3667,65.73,97,11,1.05
321,Touros,BR,1630104768,-5.1989,-35.4608,77.9,73,34,16.51
322,Samarai,PG,1630104768,-10.6167,150.6667,80.04,85,81,13.42
323,Tigil',RU,1630104769,57.8,158.6667,59.88,82,96,4.56
324,Ixtapa,MX,1630104769,20.7,-105.2,85.23,82,100,1.99
325,Jieshi,CN,1630104769,22.8134,115.8257,80.6,80,98,7.56
326,Birjand,IR,1630104770,32.8663,59.2211,66.67,26,0,4.61
327,Tay Ninh,VN,1630104770,11.3,106.1,75.65,93,100,4.14
328,Bulungu,CD,1630104771,-4.55,18.6,75.63,77,47,4.76
329,Flin Flon,CA,1630104494,54.7682,-101.865,66.04,55,75,9.22
330,Phalombe,MW,1630104771,-15.8064,35.6507,69.06,42,3,2.55
331,Sharan,RU,1630104772,54.8167,54.0,48.27,79,0,11.92
332,Jiaozuo,CN,1630104772,35.2397,113.2331,66.51,90,98,6.8
333,Gdynia,PL,1630104773,54.5189,18.5319,55.74,100,100,1.14
334,Zverinogolovskoye,RU,1630104773,54.4586,64.8542,60.58,94,100,12.62
335,Chokwé,MZ,1630104773,-24.5333,32.9833,75.74,50,1,10.8
336,Panguna,PG,1630104774,-6.3164,155.4848,76.24,80,97,4.43
337,Bud,US,1630104774,39.447,-86.1758,83.32,71,64,5.82
338,Nelidovo,RU,1630104774,56.2211,32.7774,59.63,70,100,10.78
339,Sayansk,RU,1630104775,54.1088,102.1648,49.1,81,6,4.97
340,Yar-Sale,RU,1630104775,66.8333,70.8333,39.61,80,94,11.65
341,Hofn,IS,1630104775,64.2539,-15.2082,54.12,99,100,13.73
342,Boa Vista,BR,1630104776,2.8197,-60.6733,82.38,74,75,3.44
343,Boali,CF,1630104777,4.8005,18.1275,75.07,93,86,3.4
344,Oltu,TR,1630104777,40.5498,42.0013,67.73,47,0,1.79
345,Staraya Akkermanovka,RU,1630104777,51.2467,58.2391,64.18,57,44,6.8
346,Krāslava,LV,1630104778,55.8951,27.168,59.22,99,100,7.09
347,Luganville,VU,1630104778,-15.5333,167.1667,80.08,62,40,12.08
348,Kahului,US,1630104648,20.8947,-156.47,85.64,54,40,14.97
349,Taoudenni,ML,1630104779,22.6783,-3.9836,100.81,19,97,16.73
350,Maubin,MM,1630104779,16.7333,95.65,80.76,91,100,4.29
351,Tianpeng,CN,1630104780,30.9866,103.9393,68.47,96,100,5.68
352,Constantine,DZ,1630104780,36.365,6.6147,74.61,46,0,5.75
353,Nahrin,AF,1630104780,36.0649,69.1334,67.73,28,0,3.27
354,San Quintín,MX,1630104781,30.4833,-115.95,78.96,60,29,16.04
355,Lovington,US,1630104781,32.944,-103.3485,89.31,34,33,1.99
356,Katherine,AU,1630104781,-14.4667,132.2667,64.72,48,21,4.61
357,Agirish,RU,1630104782,61.9247,63.0231,40.32,80,30,3.74
358,Lata,PT,1630104782,40.1629,-8.3327,63.27,91,55,2.57
359,Howell,US,1630104689,42.6073,-83.9294,82.42,76,40,3.44
360,Koratagere,IN,1630104783,13.5228,77.2331,71.47,90,100,9.57
361,Saint George,US,1630104608,37.1041,-113.5841,102.36,9,1,8.01
362,Lamu,KE,1630104783,-2.2717,40.902,75.42,76,12,16.17
363,Keuruu,FI,1630104783,62.2667,24.7,54.19,91,57,4.97
364,Sirte,LY,1630104784,31.2089,16.5887,85.91,42,1,14.12
365,Ordynskoye,RU,1630104785,54.3656,81.8994,57.56,85,37,5.73
366,Sal Rei,CV,1630104785,16.1833,-22.9167,79.36,83,22,10.96
367,Pisco,PE,1630104785,-13.7,-76.2167,63.01,81,51,2.57
368,Makīnsk,KZ,1630104786,52.6292,70.4169,63.75,59,19,4.94
369,Waipawa,NZ,1630104786,-41.4122,175.5153,46.62,97,100,5.68
370,Hwange,ZW,1630104786,-18.3693,26.5019,67.84,34,0,1.9
371,Vanimo,PG,1630104787,-2.6741,141.3028,80.28,83,45,6.26
372,Salinópolis,BR,1630104787,-0.6136,-47.3561,80.24,80,69,14.85
373,Windhoek,NA,1630104787,-22.5594,17.0832,46.6,57,0,5.75
374,Iwaki,JP,1630104788,37.05,140.8833,82.78,71,47,3.04
375,Meulaboh,ID,1630104788,4.1363,96.1285,75.96,90,99,4.18
376,Palmerston North,NZ,1630104789,-40.35,175.6167,58.64,86,100,6.71
377,Jacareacanga,BR,1630104789,-6.2222,-57.7528,83.14,54,82,3.0
378,Saint Anthony,US,1630104789,45.0205,-93.218,72.7,90,90,3.0
379,Qaryat Sulūq,LY,1630104790,31.6682,20.2521,82.53,42,0,1.95
380,Aklavik,CA,1630104790,68.2191,-135.0107,60.8,55,75,5.75
381,Koumac,NC,1630104791,-20.5667,164.2833,77.41,64,17,5.19
382,Ashington,GB,1630104791,50.9331,-0.3909,55.56,65,26,9.08
383,Mozarlândia,BR,1630104792,-14.7447,-50.5706,91.83,18,63,4.18
384,Patna,IN,1630104792,25.6,85.1167,76.93,88,40,0.0
385,Rocha,UY,1630104793,-34.4833,-54.3333,43.18,77,5,2.28
386,Mēga,ET,1630104793,4.05,38.3,59.99,65,9,13.04
387,Dunedin,NZ,1630104793,-45.8742,170.5036,46.8,90,100,7.78
388,Ciudad del Carmen,MX,1630104648,18.6333,-91.8333,83.84,65,87,10.76
389,San Fernando,PH,1630104776,15.0286,120.6898,76.73,85,100,4.21
390,Corner Brook,CA,1630104794,48.9667,-57.9484,62.76,81,92,13.15
391,Arroio Grande,BR,1630104794,-32.2375,-53.0869,53.29,71,2,1.97
392,College,US,1630104755,64.8569,-147.8028,45.99,92,90,3.44
393,Poronaysk,RU,1630104795,49.2167,143.1167,58.62,95,100,7.38
394,Vilyuysk,RU,1630104795,63.7553,121.6247,42.62,62,64,4.99
395,Watsa,CD,1630104796,3.0372,29.5355,63.99,96,35,1.48
396,Phonhong,LA,1630104796,18.5007,102.4166,73.02,95,99,1.05
397,La Unión,PE,1630104797,-5.4,-80.75,73.51,59,77,20.0
398,Visby,SE,1630104712,57.6409,18.296,59.32,94,90,10.36
399,Flinders,AU,1630104797,-34.5833,150.8552,54.77,72,100,5.99
400,Takapau,NZ,1630104798,-40.0333,176.35,59.18,94,100,2.75
401,Yārāda,IN,1630104798,17.65,83.2667,79.12,100,90,2.3
402,Kunshan,CN,1630104798,31.3776,120.9543,83.7,95,21,4.14
403,Petropavlovsk-Kamchatskiy,RU,1630104740,53.0452,158.6483,54.19,100,90,2.24
404,Tucson,US,1630104608,32.2217,-110.9265,102.99,21,1,4.0
405,Barentu,ER,1630104799,15.1139,37.5928,71.4,86,18,4.68
406,Kalabo,ZM,1630104800,-14.97,22.6814,67.33,19,17,3.87
407,Les Cayes,HT,1630104801,18.2,-73.75,80.8,81,88,4.85
408,El Copé,PA,1630104801,8.6167,-80.6,70.72,92,100,2.3
409,Tuatapere,NZ,1630104802,-46.1333,167.6833,48.81,83,96,3.31
410,Gobabis,NA,1630104802,-22.45,18.9667,40.05,73,0,16.8
411,Richards Bay,ZA,1630104802,-28.783,32.0377,68.05,80,68,10.13
412,Fairbanks,US,1630104632,64.8378,-147.7164,46.11,92,90,4.61
413,Quryq,KZ,1630104803,43.2,51.65,78.82,52,0,6.82
414,Quang Ngai,VN,1630104803,15.1167,108.8,75.13,89,70,3.98
415,Jalu,LY,1630104804,29.0331,21.5482,86.86,28,0,7.0
416,Blagoyevo,RU,1630104804,63.3667,47.9167,39.76,91,29,2.21
417,Sterling,US,1630104625,39.0062,-77.4286,77.58,89,75,4.61
418,Fougamou,GA,1630104805,-1.2154,10.5838,74.12,92,94,3.8
419,Kalmar,SE,1630104805,56.6616,16.3616,58.95,98,90,9.22
420,Cockburn Town,TC,1630104806,21.4612,-71.1419,84.16,70,40,11.5
421,Victor Harbor,AU,1630104806,-35.5667,138.6167,48.49,91,78,13.04
422,Sola,VU,1630104806,-13.8833,167.55,78.69,68,62,19.89
423,Hīt,IQ,1630104807,33.6416,42.8251,93.97,19,0,11.27
424,Sakakah,SA,1630104807,29.9697,40.2064,90.97,11,45,5.06
425,Pekalongan,ID,1630104807,-6.8886,109.6753,75.07,72,66,5.37
426,Jiexiu,CN,1630104808,37.0244,111.9125,69.15,47,100,2.51
427,Cam Ranh,VN,1630104808,11.9214,109.1591,75.16,94,75,2.3
428,Calama,CL,1630104642,-22.4667,-68.9333,63.09,13,0,25.32
429,Dicabisagan,PH,1630104809,17.0818,122.4157,78.67,88,99,4.56
430,Cajati,BR,1630104809,-24.7361,-48.1228,61.09,99,100,2.84
431,Beringovskiy,RU,1630104809,63.05,179.3167,50.85,85,100,14.56
432,Seoul,KR,1630104507,37.5683,126.9778,68.25,91,75,4.61
433,Honiara,SB,1630104810,-9.4333,159.95,79.59,85,100,8.05
434,Daşoguz,TM,1630104810,41.8363,59.9666,71.55,46,0,6.91
435,Council Bluffs,US,1630104585,41.2619,-95.8608,93.79,44,75,18.41
436,Camaçari,BR,1630104811,-12.6975,-38.3242,73.17,95,21,5.84
437,Posse,BR,1630104811,-14.0931,-46.3694,80.29,25,49,9.82
438,Cap-aux-Meules,CA,1630104812,47.3821,-61.8597,62.62,67,20,28.77
439,Asti,IT,1630104812,44.8979,8.2068,64.2,84,88,5.91
440,Englehart,CA,1630104748,47.8169,-79.8664,64.96,55,1,5.75
441,Doka,SD,1630104813,13.5167,35.7667,72.19,82,99,5.84
442,Serebryansk,KZ,1630104813,49.6925,83.2892,40.55,61,1,1.3
443,Vestmannaeyjar,IS,1630104813,63.4427,-20.2734,54.43,90,100,12.73
444,Solnechnyy,RU,1630104814,50.7214,136.6319,60.85,95,100,2.04
445,Necochea,AR,1630104814,-38.5473,-58.7368,44.04,78,30,5.93
446,Taywarah,AF,1630104814,33.35,64.4167,48.92,35,0,6.76
447,Gorzów Wielkopolski,PL,1630104815,52.7368,15.2288,55.58,82,41,0.78
448,Buraidah,SA,1630104815,26.326,43.975,91.85,15,0,6.29
449,Hermiston,US,1630104733,45.8404,-119.2895,79.29,30,1,4.61
450,Tocopilla,CL,1630104816,-22.092,-70.1979,60.13,77,20,11.39
451,Riyadh,SA,1630104781,24.6877,46.7219,96.94,11,0,15.84
452,Atambua,ID,1630104817,-9.1061,124.8925,75.45,65,95,4.25
453,Ust'-Omchug,RU,1630104817,61.15,149.6333,54.93,90,100,4.52
454,Pamplona,ES,1630104817,42.8169,-1.6432,62.33,72,0,6.91
455,Rosignol,GY,1630104818,6.2833,-57.5333,77.77,88,92,4.9
456,Otradnoye,RU,1630104818,59.7775,30.8181,60.85,83,97,6.78
457,Aksarka,RU,1630104818,66.5606,67.7975,39.27,82,90,9.22
458,Kiama,AU,1630104641,-34.6833,150.8667,54.5,76,100,14.14
459,Husavik,IS,1630104819,66.0449,-17.3389,57.11,70,63,17.38
460,Harper,LR,1630104819,4.375,-7.7169,76.5,89,9,7.78
461,Beloha,MG,1630104820,-25.1667,45.05,66.42,64,0,10.63
462,Porto Murtinho,BR,1630104820,-21.6989,-57.8825,63.46,94,100,4.23
463,Poum,NC,1630104821,-20.2333,164.0167,74.73,73,27,7.36
464,Mikrokambos,GR,1630104821,40.8408,22.7752,78.13,81,2,2.62
465,Novobirilyussy,RU,1630104821,56.9514,90.6661,52.52,78,0,5.21
466,Yeppoon,AU,1630104822,-23.1333,150.7333,67.78,68,14,4.27
467,Lloydminster,CA,1630104822,53.2835,-110.0016,71.82,46,75,8.05
468,Cherskiy,RU,1630104822,68.75,161.3,49.98,56,42,3.29
469,Dudinka,RU,1630104577,69.4058,86.1778,36.25,97,100,17.0
470,Dauphin,CA,1630104823,51.1494,-100.0502,59.14,89,90,8.05
471,Sangar,RU,1630104823,63.9242,127.4739,42.04,79,76,11.77
472,Kudahuvadhoo,MV,1630104824,2.6708,72.8944,81.63,77,40,14.56
473,Pritzwalk,DE,1630104824,53.1494,12.1741,54.84,92,97,6.42
474,Sars,RU,1630104825,56.5502,57.1366,44.4,90,36,6.6
475,Abu Samrah,SY,1630104825,35.3029,37.1841,81.66,26,0,5.48
476,Sistranda,NO,1630104826,63.7256,8.834,49.96,83,0,4.54
477,Baghdad,IQ,1630104541,33.3406,44.4009,87.71,30,0,9.22
478,Mvuma,ZW,1630104826,-19.2792,30.5283,57.11,42,0,4.52
479,Changuinola,PA,1630104826,9.4333,-82.5167,79.74,84,100,0.78
480,Olinda,BR,1630104827,-8.0089,-34.8553,76.73,69,75,8.05
481,Mata,PT,1630104827,40.683,-7.4592,61.93,98,34,3.8
482,Havre-St-Pierre,CA,1630104828,50.2334,-63.5986,59.36,55,75,24.16
483,Soavinandriana,MG,1630104828,-19.1667,46.7333,46.31,74,7,6.2
484,Kloulklubed,PW,1630104828,7.0419,134.2556,81.1,73,58,7.81
485,Deputatsky,RU,1630104829,69.3,139.9,39.76,92,100,4.12
486,The Valley,AI,1630104829,18.217,-63.0578,84.63,79,40,13.8
487,Baykit,RU,1630104830,61.67,96.37,54.41,85,97,3.67
488,Saint-Pierre,RE,1630104830,-21.3393,55.4781,68.74,89,90,26.46
489,Talisay City,PH,1630104546,10.2447,123.8494,78.82,94,75,1.14
490,Ola,RU,1630104831,59.5833,151.2833,56.05,94,100,1.45
491,Tromsø,NO,1630104831,69.6496,18.957,51.82,82,75,10.36
492,Antofagasta,CL,1630104657,-23.65,-70.4,58.28,85,23,4.88
493,Port Lincoln,AU,1630104832,-34.7333,135.8667,52.95,76,66,18.34
494,Bishoftu,ET,1630104832,8.75,38.9833,58.33,91,87,3.33
495,Ambon City,ID,1630104833,-3.6954,128.1814,75.34,100,40,4.61
496,Kathmandu,NP,1630104572,27.7167,85.3167,70.02,100,75,5.75
497,Nioro,GM,1630104833,13.35,-15.75,76.06,94,100,4.34
498,Fortuna,US,1630104833,40.5982,-124.1573,67.78,66,1,5.99
499,Olean,US,1630104834,42.0776,-78.4297,75.15,93,21,5.17
500,El Campo,US,1630104703,29.1966,-96.2697,86.18,58,40,9.22
501,Severnyy,RU,1630104834,50.677,36.5532,62.64,94,76,4.47
502,Wajir,KE,1630104835,1.7471,40.0573,73.51,66,1,14.25
503,Bay-Khaak,RU,1630104835,51.1667,94.5,54.32,68,100,2.33
504,Bambanglipuro,ID,1630104835,-7.95,110.2833,70.88,87,71,4.45
505,Tezu,IN,1630104836,27.9167,96.1667,73.11,99,100,3.11
506,Hamilton,US,1630104836,39.1834,-84.5333,79.27,61,23,3.22
507,Itarantim,BR,1630104728,-15.6597,-40.0656,66.45,93,76,3.94
508,Tutóia,BR,1630104837,-2.7619,-42.2744,80.42,74,26,14.65
509,Te Anau,NZ,1630104837,-45.4167,167.7167,46.44,95,100,0.63
510,Pizarro,CO,1630104838,4.9533,-77.366,78.37,84,100,5.77
511,Shitanjing,CN,1630104838,39.2342,106.3439,60.42,45,81,3.98
512,Oktyabr'skoye,RU,1630104838,43.0645,44.7417,60.94,94,0,4.47
513,Griffith,US,1630104839,41.5284,-87.4237,88.7,64,40,1.01
514,Sambava,MG,1630104839,-14.2667,50.1667,65.55,81,9,9.75
515,Terney,RU,1630104839,45.0503,136.6092,69.76,71,0,6.22
516,Saldanha,ZA,1630104840,-33.0117,17.9442,46.45,67,91,14.97
517,Zhangaözen,KZ,1630104840,43.3,52.8,77.0,42,0,6.33
518,Boden,SE,1630104841,65.8252,21.6886,42.8,92,1,3.33
519,Itaituba,BR,1630104674,-4.2761,-55.9836,74.55,90,99,2.37
520,Pontianak,ID,1630104841,-0.0333,109.3333,75.18,100,40,3.44
521,Davila,PH,1630104842,18.4726,120.5763,76.98,70,93,3.13
522,Azare,NG,1630104842,11.6765,10.1948,78.08,69,91,4.56
523,Wewak,PG,1630104842,-3.5534,143.6268,80.47,83,25,5.99
524,Maiduguri,NG,1630104843,11.8464,13.1603,73.31,76,99,10.54
525,La Santisima Trinidad,BO,1630104843,-14.8333,-64.9,71.58,73,81,4.61
526,Middelkerke,BE,1630104843,51.1558,2.8418,60.22,82,75,11.5
527,Alice Springs,AU,1630104844,-23.7,133.8833,65.75,14,22,2.3
528,Hong Kong,HK,1630104698,22.2855,114.1577,80.65,79,29,14.09
529,San Blas,MX,1630104844,21.5167,-105.2667,86.16,73,64,7.49
530,Pangkalanbuun,ID,1630104845,-2.6833,111.6167,72.66,99,81,2.06
531,Antalaha,MG,1630104845,-14.9003,50.2788,65.37,84,9,8.3
532,Seddon,AU,1630104845,-37.8068,144.8916,48.04,85,0,3.0
533,Okhotsk,RU,1630104846,59.3833,143.3,58.08,90,100,6.29
534,Mildura,AU,1630104846,-34.2,142.15,48.16,46,33,11.5
535,Chernolesskoye,RU,1630104847,44.7156,43.7133,75.07,61,0,4.99
536,Poso,ID,1630104847,-1.3959,120.7524,76.01,89,99,4.09
537,Jilib,SO,1630104847,0.4883,42.7854,71.76,78,35,8.37
538,Manaure,CO,1630104848,11.7751,-72.4445,87.3,57,85,15.75
539,Fare,PF,1630104848,-16.7,-151.0167,78.42,76,30,12.5
540,Shenandoah,US,1630104727,30.4013,-91.0009,79.18,91,87,1.01
541,Clyde River,CA,1630104849,70.4692,-68.5914,39.43,93,75,6.91
542,Narón,ES,1630104849,43.5167,-8.1528,61.61,88,0,1.9
543,Grand Gaube,MU,1630104850,-20.0064,57.6608,71.38,84,87,13.0
